stop_I;lat;lon;name
1;49.817611138;-97.1516838653;Northbound Pembina at University Crescent
2;49.912161878;-97.1440459642;Westbound Dufferin at Salter
3;49.8834301355;-97.2026556899;Eastbound Ness at St. James
4;49.8181478535;-97.151496587;Northbound University at Pembina
5;49.9316085667;-97.1831527698;Southbound Sheppard at Burrows
6;49.8781564125;-97.2934248824;Northbound Westwood at Amundsen
7;49.9091549965;-97.0723321833;Eastbound Munroe at Louelda
8;49.8184002294;-97.1515286762;Northbound University at Pembina South
9;49.821400646;-97.1495930075;Westbound Bishop Grandin at Pembina Crossing
10;49.8178028127;-97.1905608423;Westbound Scurfield at Dovercourt
11;49.8177537354;-97.1902985331;Eastbound Scurfield at Dovercourt
12;49.8235671212;-97.1483841374;Eastbound Plaza at Plaza South
13;49.8231667368;-97.1514721426;Eastbound Plaza at Pembina
14;49.8234550209;-97.1481242454;Northbound Plaza at Plaza East
15;49.8219713823;-97.1475969547;Northbound Plaza at Plaza Terminal
16;49.8232102415;-97.1519432107;Westbound Plaza at Pembina
17;49.8238410569;-97.1497640684;Westbound Plaza at Plaza West
18;49.7876115899;-97.1788624116;Eastbound John Angus at Gelley
19;49.9396558654;-97.2188497501;Eastbound Egesz at Haddon
20;49.870686355;-97.0931677825;Southbound Archibald at Elizabeth
21;49.7890393547;-97.157120484;Northbound Pembina at Killarney
22;49.8848851597;-97.12316602;Eastbound Dollard at Tache (St. Boniface Hospital)
23;49.8849903442;-97.1202245023;Eastbound Dollard at Kenny
24;49.881979573;-97.0787464812;Westbound Marion at Turenne
25;49.8870807546;-97.1221063115;Eastbound Despins at Valade
26;49.8829455089;-97.1128562355;Southbound Enfield at Goulet
27;49.8833146538;-97.1172965714;Northbound Traverse at Thomas Berry
28;49.887539833;-97.1188028452;Southbound Aulneau at Despins
29;49.8853313317;-97.11851282;Southbound Aulneau at Dollard
30;49.8906982271;-97.149004626;Westbound Graham at Vaughan (The Bay)
31;49.8337077526;-97.1457717805;Westbound Crescent at Kebir
32;49.9384205683;-97.1605418504;Northbound McPhillips at Inkster
33;49.8431666241;-97.182951444;Eastbound Victor Lewis at Avon Gate
35;49.8382747977;-97.1411325955;Southbound South at Crane
36;49.9353160173;-97.1536781562;Southbound Airlies at Polson
37;49.8367727056;-97.1405782625;Southbound South at Holly
38;49.8258201644;-97.1695719251;Westbound Chevrier at Hamelin
39;49.8669468575;-97.1856496477;Westbound Grosvenor at Niagara
40;49.866717715;-97.1830837427;Eastbound Grosvenor at Ash
41;49.8277383382;-97.1977961349;Northbound Lindenwood at Lindenwood
42;49.8543264563;-97.174755749;Southbound Poseidon at Pan Am Pool
43;49.7814558845;-97.1832468526;Northbound John Angus at Wave rley
44;49.905510426;-96.9861266752;Eastbound McMeans at Bayview
45;49.8666432012;-97.177200007;Westbound Grosvenor at Waverley
46;49.8508297351;-97.2071345499;Northbound Kenaston at Taylor
47;49.8742550258;-97.1991688216;Eastbound Academy at Beaverbrook
48;49.8744112153;-97.1988011341;Westbound Academy at Wellington Crescent South
49;49.8668409514;-97.1829121242;Westbound Grosvenor at Ash
50;49.8666378161;-97.1808601572;Eastbound Grosvenor at Elm
51;49.8667415649;-97.1800212889;Westbound Grosvenor at Elm
52;49.8665453977;-97.1778438304;Eastbound Grosvenor at Waverley
53;49.8945137806;-97.1423699486;Northbound Smith at Portage North
54;49.9365888506;-97.1528351326;Eastbound Inkster at Airlies
55;49.9007623465;-96.9841379833;Eastbound Kildare at Widlake
56;49.9208083764;-97.133000385;Westbound Mountain at Aikins
57;49.8126290447;-97.1991080814;Northbound Columbia at Exbury
58;49.8122659896;-97.1988991493;Southbound Columbia at Exbury
59;49.8151913171;-97.1005770249;Northbound Paddington at John Forsyth
60;49.8167545521;-97.1931300729;Eastbound Scurfield at Henlow West
61;49.8318868399;-97.1647121352;Westbound Clarence at Irene
62;49.8133775425;-97.2003869756;Southbound Columbia at Hallmark
63;49.8167564071;-97.1938250943;Westbound Scurfield at Henlow
64;49.8405761;-97.1715321891;Southbound Fennell at Seel
65;49.8318206058;-97.1645060499;Eastbound Clarence at Irene
66;49.8372688825;-97.1688753979;Southbound Fennell at Buffalo
67;49.8155824233;-97.1547638922;Southbound Chancellor at Gaylene
68;49.8399655137;-97.1956725285;Southbound Lindenwood at Tweedsmuir
69;49.8426511114;-97.1896611202;Southbound Lindenwood at Kingsborough
70;49.816209526;-97.1523489451;Northbound Chancellor at Pembina
71;49.8153866445;-97.1548964523;Northbound Chancellor at Gaylene
72;49.8147855032;-97.1516108075;Northbound Pembina at Thatcher North
73;49.8160383934;-97.1517715936;Southbound Pembina at Chancellor
74;49.8134382721;-97.1523015791;Southbound Pembina at Thatcher
75;49.9271586629;-97.1696094477;Westbound Burrows at McPhillips
76;49.8086824502;-97.1762786822;Southbound Bridgeland at Brockington
77;49.9412195183;-97.054954443;Westbound Sun Valley at Gateway
78;49.817818455;-97.1511476833;Southbound University at Pembina
79;49.8178858161;-97.1525492368;Southbound Pembina at University Crescent
80;49.9442244421;-97.199599488;Southbound Dexter at Kinver
81;49.9409822956;-97.0547549312;Eastbound Sun Valley at Gateway
82;49.9200507929;-97.0822488626;Northbound Gateway at Kimberly
83;49.960774948;-97.1892079209;Westbound Jefferson at Ritchie
84;49.9522200735;-97.1020917346;Westbound Chief Peguis at Main
85;49.807346772;-97.1076669337;Eastbound Warde at Paddington
86;49.9515915705;-97.1032595843;Northbound Main at Chief Peguis
87;49.9387864736;-97.2085545747;Westbound Burrows at Sumter
88;49.8019732463;-97.1559206451;Westbound Chancellor Matheson at Pembina
89;49.938256318;-97.2068460814;Southbound King Edward at Burrows
90;49.938649608;-97.2125037811;Eastbound Burrows at Palms
91;49.8940332641;-97.2638335424;Eastbound Cree at Cree D
92;49.8952108281;-97.1522016668;Northbound Balmoral at Qu'Appelle
93;49.9386114186;-97.2088676781;Eastbound Burrows at Sumter
94;49.8889764215;-97.1482072939;Northbound Vaughan at St. Mary
95;49.8866064878;-97.1456945887;Southbound Kennedy at Broadway
96;49.8880855932;-97.1465010919;Southbound Kennedy at York
97;49.8895644705;-97.147293729;Southbound Kennedy at St. Mary
98;49.8918431412;-97.1497266114;Northbound Vaughan at Portage North
99;49.8912357276;-97.1494296064;Northbound Vaughan at Portage South
100;49.890419107;-97.1489874585;Northbound Vaughan at Graham (The Bay)
101;49.8360931525;-97.1679045709;Southbound Irene at Sony
102;49.836080642;-97.1676825256;Northbound Irene at Sony
103;49.8681785349;-97.2654148092;Northbound William Clement at Roblin
104;49.837405237;-97.0698882058;Northbound Island Shore at Tidewater
105;49.8431404678;-97.2008537985;Southbound Lorimer at Sterling Lyon
106;49.8465788256;-97.2004201156;Northbound Lorimer at Wilkes (Golf Dome)
107;49.8464823149;-97.2005767133;Southbound Lorimer at Wilkes (Golf Dome)
108;49.8468312408;-97.1946796429;Eastbound Wilkes at Sun-X
109;49.8538441285;-97.1652995194;Eastbound Taylor at Nathaniel
110;49.8433003403;-97.2007226787;Northbound Lorimer at Sterling Lyon
111;49.9008941986;-96.9855111894;Westbound Kildare at Southampton
112;49.9308315494;-97.14155915;Eastbound Atlantic at McKenzie
113;49.9445952417;-97.2026242749;Westbound Kinver at Cropo East
114;49.891351084;-97.1364347462;Southbound Main at St. Mary
115;49.8942460378;-97.1380219721;Southbound Main at Pioneer
116;49.8961755616;-97.1388667306;Southbound Main at Lombard
117;49.8971147159;-97.1390951697;Southbound Main at McDermot
118;49.8990303652;-97.1390771688;Southbound Main at William (City Hall)
119;49.9002280532;-97.1380423492;Southbound Main at James
120;49.901780157;-97.1366735193;Southbound Main at Alexander
121;49.9034052795;-97.1353714184;Southbound Main at Henry
122;49.9042712199;-97.1344049171;Northbound Main at Higgins
123;49.9023591196;-97.1357599171;Northbound Main at Logan
124;49.8701154214;-97.155066248;Eastbound Corydon at Arbuthnot
125;49.8801144399;-97.293230568;Northbound Westwood at Byrd
126;49.870785111;-97.1530644615;Eastbound Corydon at Cockburn
127;49.9024733092;-97.2184230234;Westbound Wellington at Flight
128;49.8715577516;-97.1507525001;Eastbound Corydon at Hugo
129;49.9040939017;-97.1999101906;Southbound St James at Wellington North
130;49.8722529987;-97.1486661087;Eastbound Corydon at Daly
131;49.8715830629;-97.1512108144;Westbound Corydon at Hugo
132;49.8732485057;-97.1462341271;Westbound Corydon at Nassau
133;49.9256705209;-97.2078844178;Westbound Logan at King Edward
134;49.9427037462;-97.1720030724;Eastbound Inkster at Milner
135;49.8948824196;-97.2694841262;Westbound Murray Park at Cree West
136;49.9034247361;-97.1658703093;Eastbound Notre Dame at Simcoe
137;49.9035194317;-97.1656021089;Westbound Notre Dame at Tecumseh
138;49.9198837341;-97.1949477038;Northbound Keewatin at Pacific
139;49.8837821381;-97.1957934576;Westbound Westway at Empress
140;49.9013000506;-97.1989836471;Westbound Wellington at St James
141;49.8838208137;-97.1965437535;Southbound Empress at Westway
142;49.8821134075;-97.1966491404;Southbound Empress at Eastway
143;49.8848575483;-97.1995817394;Westbound Polo Park West Access at Polo Park (11)
144;49.8831426631;-97.1997847465;Westbound Polo Park West Access at Polo Park Sears
145;49.9550508475;-97.0888054806;Northbound Rivergrove at Attridge
146;49.8441629156;-97.0738059296;Eastbound Beaverhill at Lakewood
147;49.9169156115;-97.1949610302;Northbound Keewatin at William
148;49.8937966361;-97.2618509231;Eastbound Murray Park at Moray
149;49.8480106915;-97.2575539576;Southbound Elmhurst at Beiko
150;49.8448886143;-97.2580974174;Westbound Ridgewood at Elmhurst
151;49.8442060448;-97.0742354206;Westbound Beaverhill at Lakewood
152;49.8688185012;-97.1375526374;Southbound Osborne at Woodward
153;49.7881153708;-97.1748699412;Eastbound John Angus at Brookstone
154;49.9140862624;-97.2126181974;Eastbound Stevenson at Sherwin
155;49.9418892779;-97.1694135867;Eastbound Inkster at Bunting
156;49.8859445154;-97.2630796433;Westbound Ness at Moray
157;49.850566821;-97.2606477528;Northbound Laxdal at Beiko North
158;49.8522375229;-97.2604903917;Northbound Laxdal at Eldridge
159;49.8453209668;-97.2611281495;Northbound Laxdal at Ridgewood
160;49.8486354044;-97.2608144593;Northbound Laxdal at Beiko
161;49.8817567161;-97.1388783768;Westbound River at Clarke
162;49.8985100318;-97.1069852191;Southbound Archibald at La Verendrye
163;49.8818505315;-97.1374409492;Southbound Donald at River
164;49.8940554432;-97.1140241399;Eastbound Provencher at Des Meurons
165;49.8920156298;-97.1475757966;Eastbound Portage at Edmonton (Portage Place)
166;49.8941710225;-97.1144930554;Westbound Provencher at Thibault
167;49.8928638664;-97.0523880352;Westbound Rougeau at Rizzuto
168;49.892716906;-97.0527420475;Eastbound Rougeau at Rizzuto
169;49.8957880521;-97.0540387366;Westbound Regent at Peguis
170;49.8956563909;-97.0547681163;Eastbound Regent at Peguis
171;49.8930584767;-97.0564738341;Westbound Rougeau at Bachinsky
172;49.8928931692;-97.0562716173;Eastbound Rougeau at Bachinsky
173;49.8967886908;-97.0595267032;Westbound Regent at Kildonan Place (Park & Ride)
174;49.896270723;-97.0581410735;Eastbound Regent at Rougeau
175;49.8952890503;-97.0580690859;Westbound Rougeau at Regent
176;49.8971961782;-97.0618358486;Westbound Regent at Stapon East
177;49.895175348;-97.1880861338;Northbound Valour at Dauphin
178;49.8946901689;-97.1115765634;Eastbound Provencher at Sprague
179;49.8755261693;-97.2545594921;Westbound Portage at Whytewold
180;49.8845427572;-97.1765954819;Westbound Portage at Sherburn
181;49.8810283493;-97.1962858824;Eastbound Portage at St. John Ambulance
182;49.8803958017;-97.1995667548;Eastbound Portage at Tylehurst (Polo Park)
183;49.8808120464;-97.1991475849;Westbound Portage at Tylehurst (Polo Park)
184;49.8758167781;-97.2511667713;Westbound Portage at Strathmillan
185;49.8833420241;-97.1837543307;Eastbound Portage at Newman
186;49.8828484423;-97.1866962235;Eastbound Portage at Clifton
187;49.8822328443;-97.1898931907;Eastbound Portage at Craig
188;49.882016291;-97.1910010141;Eastbound Portage at Raglan
189;49.874569948;-97.3206640972;Northbound St Charles at Augier
190;49.8733512913;-97.3209847268;Southbound St Charles at St. Charles Loop
191;49.9012975547;-97.209261196;Northbound Berry at Wellington
192;49.8836550536;-97.1813481636;Eastbound Portage at Sprague
193;49.8779021481;-97.3203257908;Northbound St Charles at Lepine
194;49.8763150898;-97.3206731521;Southbound St Charles at Sansome
195;49.8760159861;-97.320516504;Northbound St Charles at Sansome
196;49.8748602629;-97.3208349649;Southbound St Charles at Augier
197;49.8620865778;-97.156429649;Northbound Stafford at Grant
198;49.8606149754;-97.1555255678;Southbound Stafford at Carter
199;49.940491184;-97.1403790963;Westbound Jefferson at Teakwood
200;49.859366554;-97.1545156385;Southbound Stafford at Ebby
201;49.8650851092;-97.1588899077;Northbound Stafford at Fleet
202;49.8633854652;-97.1577856434;Southbound Stafford at Dudley
203;49.8634082282;-97.1575203878;Northbound Stafford at Dudley
204;49.8622464882;-97.1568688392;Southbound Stafford at Grant
205;49.9433768074;-97.1498157184;Eastbound Jefferson at Tulip
206;49.942818375;-97.1480809075;Eastbound Jefferson at Airlies West
207;49.8664788752;-97.1599919545;Northbound Stafford at Warsaw
208;49.8652171571;-97.1592745288;Southbound Stafford at Fleet
209;49.7819258615;-97.1788116654;Westbound Waverley at Autumnview South
210;49.7845169062;-97.1845632827;Northbound John Angus at Tellier
211;49.8907944555;-97.20075313;Northbound St James at St. Matthews
212;49.7861321371;-97.1831691674;Eastbound John Angus at Brookstone West
213;49.7855333171;-97.1527383389;Northbound Baylor at Leeds
214;49.9460435648;-97.1899276838;Westbound Inkster at Plymouth
215;49.9488936684;-97.1812338916;Eastbound Mapleton at Rozmus West
216;49.9250847987;-97.1585137351;Eastbound Aberdeen at Artillery
217;49.9260308828;-97.1614454696;Eastbound Aberdeen at Battery
218;49.9122691001;-97.1161552815;Northbound Henderson at Gordon
219;49.9172677806;-97.1613190979;Southbound Sinclair at Dufferin
220;49.9242990032;-97.1560497111;Eastbound Aberdeen at Sinclair
221;49.9198940822;-97.1584746794;Eastbound Selkirk at Sinclair
222;49.9200172781;-97.1583028068;Westbound Selkirk at Sinclair
223;49.9258836556;-97.1606708101;Westbound Aberdeen at Battery
224;49.9209921764;-97.1619157955;Eastbound Selkirk at Sinclair West
225;49.9209640282;-97.1612760025;Westbound Selkirk at Sinclair West
226;49.9250792619;-97.1581656209;Westbound Aberdeen at Artillery
227;49.9338997973;-97.1835682774;Southbound Sheppard at Redwood
228;49.9458816695;-97.2165989701;Eastbound Inkster at Burrows
229;49.9121945089;-97.0814879714;Eastbound Munroe at London
230;49.8806562368;-97.2872815262;Eastbound Portage at Daer
231;49.8804266077;-97.2857445343;Eastbound Portage at Golf
233;49.9540376217;-97.0587180396;Eastbound Headmaster at Douglas Lawrence
234;49.9039181182;-97.0890444629;Eastbound Talbot at Cameron
235;49.88251761;-97.3074283177;Eastbound Portage at Bedson
236;49.8828616733;-97.3038943595;Eastbound Portage at Seaton
237;49.8820556904;-97.3115231539;Eastbound Portage at David
238;49.8817981355;-97.2945632306;Eastbound Portage at Parkdale
239;49.8808837893;-97.2886794049;Eastbound Portage at Banting
240;49.8824956027;-97.2991742001;Eastbound Portage at Rouge
241;49.882174579;-97.2969164455;Eastbound Portage at Muriel
242;49.9373075172;-97.0603661137;Northbound Gateway at Jim Smith
243;49.9418965939;-97.0545647844;Northbound Gateway at Sun Valley
244;49.9343993938;-97.0441640114;Westbound Sun Valley at Alberhill
245;49.9461859372;-97.1270430587;Eastbound Partridge at McGregor
246;49.9360539076;-97.0628553093;Northbound Raleigh at Springfield
247;49.9259870587;-97.1717438162;Eastbound Manitoba at McPhillips West
248;49.9171378109;-97.1486470835;Northbound McGregor at Selkirk
249;49.9185594252;-97.1475477954;Northbound McGregor at Manitoba
250;49.9181730199;-97.148133777;Southbound McGregor at Manitoba
251;49.9195011686;-97.14681513;Northbound McGregor at Burrows
252;49.9199142382;-97.1467714285;Southbound McGregor at Burrows
253;49.9207849522;-97.1460971785;Southbound McGregor at Aberdeen
254;49.9327250603;-97.1712240638;Eastbound Mountain at Fife
255;49.9208962413;-97.145744614;Northbound McGregor at Aberdeen
256;49.9223531135;-97.1446020012;Northbound McGregor at Boyd
257;49.9301452908;-97.1856323883;Westbound Manitoba at Leo Novak
258;49.9413565149;-97.1670086222;Westbound Inkster at Fife
259;49.929299792;-97.182765827;Eastbound Manitoba at Railway
260;49.9309164057;-97.1883485567;Eastbound Manitoba at Buller
261;49.9315502874;-97.1903453379;Eastbound Manitoba at Chudley
262;49.9301503089;-97.1859526919;Eastbound Manitoba at Leo Novak
263;49.9309019686;-97.1880007318;Westbound Manitoba at Buller
264;49.9409892104;-97.1428268791;Northbound Sinclair at Jefferson
265;49.9096916415;-97.0900559242;Northbound Grey at Harbison
266;49.9457107445;-97.2066947301;Northbound King Edward at Inkster
267;49.9469593752;-97.1104251948;Southbound Margaret at Margaret Loop
268;49.8977708673;-97.0666170376;Eastbound Regent at Lagimodiere
269;49.9557568385;-97.15451367;Westbound Leila at Simkin
270;49.9366771713;-97.0657012295;Westbound Springfield at Edelweiss
271;49.9361749161;-97.0641744089;Westbound Springfield at Raleigh
272;49.8577249538;-97.0500167856;Southbound Lagimodiere at Fermor
273;49.9544781381;-97.1504776953;Westbound Leila at Watson East (Seven Oaks Hospital)
274;49.9404462118;-97.0770487676;Westbound Springfield at Rothesay
275;49.9390539579;-97.0728394302;Westbound Springfield at Karen
276;49.9420655918;-97.0819462216;Westbound Springfield at Graduate
277;49.9405695756;-97.0779776743;Eastbound Springfield at Rothesay
278;49.9379842018;-97.0701783647;Eastbound Springfield at Brian
279;49.9367346787;-97.0664514976;Eastbound Springfield at Edelweiss
280;49.939015735;-97.0732451327;Eastbound Springfield at Karen
281;49.9383435946;-97.0706936092;Westbound Springfield at Brian
282;49.8305403616;-97.1156337942;Westbound Bishop Grandin at St. Mary's
283;49.9157389034;-97.0744656662;Westbound Concordia at Besant
284;49.8819462719;-97.1072990997;Eastbound Marion at Youville
285;49.8818250261;-97.1103385354;Eastbound Marion at Des Meurons
286;49.821554615;-97.1373244659;Southbound River at Avalon
287;49.8024065907;-97.1119594159;Westbound Burland at Malmsbury
288;49.8814240437;-97.1205161493;Eastbound Marion at Kenny
289;49.8812864999;-97.1236814309;Eastbound Marion at Tache
290;49.8816647259;-97.1142982344;Eastbound Marion at Braemar
291;49.8815309729;-97.1176861321;Eastbound Marion at Traverse
292;49.8824491048;-97.121047092;Westbound Goulet at Kenny
293;49.8825753237;-97.1177429583;Westbound Goulet at Traverse
294;49.8811852771;-97.1268731285;Eastbound Marion at St. Mary's
295;49.8184854949;-97.1183126357;Northbound River at Nicollet
296;49.9514206324;-97.1409757969;Westbound Leila at Garden Park
297;49.8287625832;-97.0432140006;Northbound Des Hivernants at Ironweed
298;49.8322303616;-97.0440196742;Westbound Lafrance at Proulx
299;49.8955661892;-97.1090359421;Westbound Provencher at Nadeau
300;49.8402207955;-97.0817932004;Northbound Shorehill at Bishop Grandin
301;49.8389344129;-97.0812460525;Northbound Shorehill at High Ridge
302;49.8364701662;-97.0780196772;Northbound Shorehill at Norcross
303;49.8345869731;-97.0762029791;Northbound Shorehill at Wildfire
304;49.8617543797;-97.1090762865;Southbound St Anne's at Loraine
305;49.9484431827;-97.107648859;Northbound Main at Seaforth
306;49.8332090359;-97.0455099279;Northbound Burning Glass at Sage Creek
307;49.833642565;-97.0477453594;Eastbound Sage Creek at Burning Glass
308;49.9447127487;-97.0869984229;Southbound Henderson at Sutton
309;49.9429485283;-97.0885597067;Southbound Henderson at Slater
310;49.9479382576;-97.0840548053;Southbound Henderson at Chief Peguis
311;49.9466286092;-97.0853613134;Southbound Henderson at Whellams
312;49.9494255869;-97.0820720422;Southbound Henderson at Valhalla
313;49.9513987311;-97.0795540281;Southbound Henderson at Fortier
314;49.9505611703;-97.0805771198;Southbound Henderson at Gilmore
315;49.7529541141;-97.1415923006;Southbound Turnbull at Floodway
316;49.9416632645;-97.0897116717;Southbound Henderson at Edison
317;49.9402357695;-97.0909667591;Southbound Henderson at Hawthorne
318;49.811578412;-97.0952972969;Eastbound Warde at Dakota West
319;49.810308072;-97.0990028905;Eastbound Warde at John Forsyth
320;49.8228814003;-97.1782891647;Westbound Chevrier at Gamble
321;49.8380788153;-97.1030043162;Westbound Beliveau at Kearney
322;49.8378143745;-97.1033345488;Eastbound Beliveau at Kearney
323;49.8367758282;-97.1063792422;Eastbound Beliveau at Eric
324;49.8370232091;-97.1061053311;Westbound Beliveau at Eric
325;49.8409038639;-97.0948266033;Westbound Beliveau at St. Anne's
326;49.8409232789;-97.0943668472;Eastbound Beliveau at St. Anne's
327;49.8390234083;-97.1002691329;Westbound Beliveau at Beechtree
328;49.8389307764;-97.100105864;Eastbound Beliveau at Beechtree
329;49.9041568383;-97.1558986833;Eastbound William at Sherbrook (HSC)
330;49.8851035377;-97.1172269732;Eastbound Dollard at Traverse
331;49.8656277566;-97.2916816669;Southbound Westwood at Assiniboine
332;49.9464419874;-97.1101387789;Northbound Main at Margaret
333;49.8938709432;-97.1432300758;Westbound Portage at Donald (MTS Centre)
334;49.890531613;-97.05973591;Southbound Terracon at Elan
335;49.87336841;-97.1656174722;Northbound Stafford at Kingsway
336;49.8811913487;-97.1992448341;Northbound Polo Park at Polo Park (24, 95)
337;49.8810920283;-97.1992206889;Southbound Polo Park Terminal at Polo Park (All Routes)
338;49.8808988467;-97.2933560286;Southbound Westwood at Portage
340;49.8571952542;-97.1559897108;Westbound Taylor at Harrow
341;49.8557089432;-97.1013400736;Southbound Seagrim at Alpine
342;49.8272261657;-97.0852551594;Southbound St Anne's at Novavista
343;49.8088992912;-97.203944558;Eastbound Columbia at Westmoreland
344;49.8282163272;-97.094560377;Northbound Ashworth at Woodydell
345;49.8266200732;-97.0932187205;Northbound Ashworth at Whitley
346;49.824739635;-97.0915546311;Northbound Ashworth at Novavista
347;49.8230287796;-97.0903567166;Southbound Ashworth at Harlesden
348;49.825712167;-97.1964949023;Southbound Lindenwood at Fairhaven
349;49.954958078;-97.160845828;Northbound Pipeline at Adsum
350;49.8302313352;-97.0962055084;Northbound Ashworth at Wales
351;49.825100727;-97.1130226012;Westbound Meadowood at St. Mary's
352;49.86108559;-97.0761385416;Westbound Cottonwood at Canberra
353;49.8610625974;-97.0774613502;Westbound Cottonwood at Autumnwood
354;49.8609633842;-97.0752806871;Eastbound Cottonwood at Canberra
355;49.9511940534;-97.1492930996;Northbound McPhillips at Kingsbury
356;49.8634251753;-97.0783555492;Southbound Autumnwood at Erie
357;49.8648463917;-97.0783548144;Southbound Autumnwood at Echo
358;49.8618297002;-97.0781544735;Northbound Autumnwood at Cottonwood
359;49.8636289249;-97.0781665636;Northbound Autumnwood at Winakwa
360;49.860964731;-97.0715793331;Eastbound Cottonwood at Speers
361;49.8609434277;-97.0773269343;Eastbound Cottonwood at Autumnwood
362;49.8739287114;-97.1903568048;Eastbound Academy at Campbell
363;49.8741436597;-97.191448315;Westbound Academy at Borebank
364;49.8741923528;-97.1928383264;Westbound Academy at Lindsay
365;49.8740348798;-97.19312257;Eastbound Academy at Lindsay
366;49.8737496884;-97.1852416052;Eastbound Academy at Niagara
367;49.8739541694;-97.1862360536;Westbound Academy at Queenston
368;49.8738437231;-97.1877990313;Eastbound Academy at Brock
369;49.8740477469;-97.1887656727;Westbound Academy at Cordova
370;49.915197154;-97.0900891436;Westbound Munroe at Raleigh
371;49.8743206748;-97.1964523043;Westbound Academy at Lanark
372;49.8741723992;-97.1967501125;Eastbound Academy at Lanark
373;49.9261669215;-97.113425963;Westbound Matheson at Scotia
374;49.8999376687;-97.1412425336;Southbound Princess at William (Red River College)
375;49.9003665013;-97.1738404783;Eastbound Wellington at Ingersoll
376;49.9252321446;-97.221457463;Eastbound Logan at Parent
377;49.896531827;-97.2878613221;Eastbound Hamilton at Silver
378;49.8868565302;-97.3162978838;Southbound Buchanan at Fairlane
379;49.9019965666;-97.0643452065;Westbound Reenders at Lagimodiere East
380;49.8911967562;-97.0426113069;Westbound Rougeau at Bournais
381;49.9377723826;-97.1678832844;Northbound Fife at Huron
382;49.9511263459;-97.1608523973;Northbound Pipeline at Manren
383;49.8132257416;-97.1519482512;Northbound Pembina at Thatcher
384;49.8910316604;-97.0424230596;Eastbound Rougeau at Bournais
385;49.8881270471;-97.2833694945;Westbound Ness at Heritage
386;49.9527006119;-97.1608621279;Northbound Pipeline at Doubleday
387;49.850573742;-97.2097732949;Westbound Taylor at Kenaston West
388;49.8506625252;-97.2126079639;Westbound Taylor at Morpeth
389;49.8428096384;-97.1796961428;Southbound Waverley at Victor Lewis
390;49.9677533851;-97.1787799137;Northbound Strasbourg at Thorn
391;49.8424873439;-97.1792214255;Northbound Waverley at Victor Lewis
392;49.8160427572;-97.1959369057;Westbound Scurfield at Kenaston East
393;49.8135203006;-97.2003121758;Northbound Columbia at Hallmark
394;49.8054817938;-97.1553842634;Northbound Pembina at Dartmouth
395;49.8082563165;-97.1539444478;Northbound Pembina at Markham
396;49.8086537303;-97.1546104055;Eastbound Markham at Pembina
397;49.8093692627;-97.1537909069;Southbound Pembina at Markham
398;49.8087541675;-97.1547038827;Westbound Markham at Pembina
399;49.8105200624;-97.1531911155;Southbound Pembina at Southpark South
400;49.8106473678;-97.1527136661;Northbound Pembina at Southpark
401;49.8164639042;-97.1513800335;Northbound Pembina at Chancellor
402;49.8120670689;-97.1526179098;Southbound Pembina at Southpark (Park & Ride)
403;49.895407887;-97.0384445388;Westbound Regent at Owen East
404;49.8228099798;-97.1376377454;Eastbound Bishop Grandin at River
405;49.9073071914;-97.1335774588;Northbound Main at Jarvis
406;49.908823072;-97.0471627623;Northbound Peguis at Prairie Crocus
407;49.8291051183;-97.1341977166;Southbound River at Kilmarnock
408;49.9079989054;-97.0473631893;Southbound Peguis at Prairie Crocus
409;49.8960340676;-97.1508056044;Southbound Kennedy at Sargent
410;49.9366979798;-97.1338356696;Southbound McGregor at Enniskillen
411;49.9007583444;-97.0505939619;Northbound Peguis at Cal Gardner
412;49.8979270791;-97.1476836162;Southbound Ellen at Notre Dame
413;49.9167408086;-97.1952879606;Southbound Keewatin at Notre Dame
414;49.9280889366;-97.2235677833;Northbound Omands Creek at Sylvan
415;49.8957159493;-97.1354589689;Eastbound Lombard at Westbrook
416;49.8768211714;-97.2937642531;Southbound Westwood at Henday
417;49.8825978427;-97.1363681281;Westbound River at Donald East
418;49.8490521259;-97.064930949;Southbound Beaverhill at Edgewater
419;49.8888216868;-97.1363233308;Northbound Fort at Broadway
420;49.8971581574;-97.1820241438;Eastbound Sargent at Wall
421;49.8985502551;-97.1444708392;Northbound Hargrave at McDermot
422;49.9022970008;-96.9685039589;Eastbound McMeans at Corliss
423;49.7655987535;-97.1566069359;Northbound Villeneuve at Gendreau
424;49.900734784;-97.1455150362;Southbound Ellen at William
425;49.8939880064;-97.1903862944;Westbound Ellice at Strathcona
426;49.7678859777;-97.1590199862;Westbound Ducharme at Villeneuve
427;49.8469556775;-97.1940073042;Westbound Wilkes at Sun-X
428;49.7672603531;-97.1604046807;Eastbound Ducharme at Houde
429;49.8988512967;-97.1469797996;Southbound Ellen at McDermot
430;49.8177516368;-97.1525960536;Eastbound Bishop Grandin at Pembina West
431;49.8757249994;-97.2546219164;Northbound Whytewold at Portage
432;49.8469445239;-97.1909891473;Westbound Wilkes at Villa Nova
433;49.9347987517;-97.0961846321;Northbound Henderson at Northdale
434;49.8939170063;-97.1881471885;Westbound Ellice at Valour
435;49.8938280316;-97.1853378802;Westbound Ellice at Clifton
436;49.9241983763;-97.125694025;Northbound Main at Cathedral
437;49.9208692547;-97.1952731221;Southbound Keewatin at Alexander
438;49.8969808092;-97.1385990236;Northbound Main at McDermot
439;49.8999006276;-97.1378182161;Northbound Main at James (Concert Hall)
440;49.9145369218;-97.0789990328;Northbound London at Fleming
441;49.8827708979;-97.2542147005;Southbound Whytewold at Bruce
442;49.8917105984;-97.1375347715;Westbound St Mary at Fort
443;49.8937925973;-97.1842252929;Westbound Ellice at Erin
444;49.8868510911;-97.1334895269;Northbound Main at Assiniboine
445;49.8892568427;-97.1348586067;Northbound Main at Broadway (Union Station)
446;49.8942925875;-97.137560683;Northbound Main at Pioneer
447;49.8789525258;-97.1379004648;Northbound Donald at Wardlaw
448;49.8797809007;-97.1379521147;Southbound Donald at Stradbrook
449;49.8734376612;-97.1451273501;Eastbound Corydon at Nassau
450;49.8775712375;-97.1387052484;Southbound Donald at Gertrude
451;49.8830509564;-97.1354597396;Northbound Harkness at River
452;49.8845154204;-97.1331202124;Eastbound Mayfair at Queen Elizabeth
453;49.9081271487;-97.1799960993;Westbound Notre Dame at Wall
454;49.9075215896;-97.1786678845;Eastbound Notre Dame at Wall
455;49.9072282422;-97.1771747278;Westbound Notre Dame at Myrtle
456;49.9067456563;-97.1762319088;Eastbound Notre Dame at Dominion
457;49.8979263048;-97.2064756588;Eastbound Sargent at King Edward
458;49.8839050594;-97.1320857491;Southbound Queen Elizabeth at Stradbrook
459;49.8979647624;-97.202575196;Westbound Sargent at Century
460;49.8977349927;-97.200522824;Eastbound Sargent at St. James
461;49.9014188638;-97.2031570619;Westbound Wellington at Century
462;49.9014564922;-97.2044229425;Westbound Wellington at Bradford
463;49.9163699666;-97.1957336499;Eastbound Notre Dame at Keewatin
464;49.9154070381;-97.1939725991;Westbound Notre Dame at Worth
465;49.9154576319;-97.1943328937;Eastbound Notre Dame at Worth
466;49.9140775988;-97.1929357429;Eastbound Notre Dame at Bannatyne
467;49.9143738245;-97.1928968099;Westbound Notre Dame at Bannatyne
468;49.9128330472;-97.1915753909;Eastbound Notre Dame at Cecil
469;49.9130203088;-97.1914708795;Westbound Notre Dame at Cecil
470;49.9012013583;-97.195533656;Westbound Wellington at Empress
471;49.9120602956;-97.1904760307;Westbound Notre Dame at Winnipeg
472;49.9106998422;-97.1880336902;Westbound Notre Dame at Flint
473;49.7875568865;-97.1527169345;Northbound Baylor at Mount Allison
474;49.7867019782;-97.152693883;Northbound Baylor at Bryn Mawr
475;49.8534500393;-97.2543950245;Southbound Cathcart at Beauchemin
476;49.8555340642;-97.2542086279;Southbound Cathcart at Chalfont
477;49.8500767447;-97.2573683704;Southbound Elmhurst at Beiko North
478;49.8522644184;-97.2551055142;Westbound Eldridge at Cathcart
479;49.7908316262;-97.1572608747;Northbound Pembina at Killarney North
480;49.7878845062;-97.1529545557;Southbound Baylor at Mount Allison
481;49.8583903965;-97.2539387206;Southbound Cathcart at Grant
482;49.8479771879;-97.1538505015;Westbound Windermere at Windermere Terminal
483;49.9024686743;-97.1297255083;Eastbound Disraeli at Argyle
484;49.9026365539;-97.1300950334;Westbound Disraeli at Henry
485;49.9017197928;-97.1346008255;Westbound Disraeli at Martha
486;49.8949791733;-97.0028569079;Eastbound Regent at Day
487;49.8936029271;-97.1366264807;Eastbound William Stephenson at Westbrook
488;49.9015238377;-97.1341627437;Eastbound Disraeli at Lily
489;49.9090030052;-97.1705057805;Westbound William at McPhillips
490;49.9349090959;-97.0643226902;Northbound Raleigh at Eade
491;49.8990942979;-97.1374593457;Westbound Market at Main (Concert Hall)
492;49.9117439653;-97.2094732446;Eastbound Dublin at Sherwin
493;49.9341753119;-97.1207917833;Westbound Jefferson at Main
494;49.8954937538;-97.0515162937;Westbound Regent at Peguis East
495;49.8952315188;-97.0509002519;Eastbound Regent at Peguis East
496;49.8951898838;-97.0457637714;Eastbound Regent at Starlight
497;49.8954383446;-97.045029653;Westbound Regent at Club Regent (Park & Ride)
498;49.892487695;-97.0498133593;Westbound Rougeau at Trudell
499;49.8923022879;-97.0494866644;Eastbound Rougeau at Bernard
500;49.8951716892;-97.0404314039;Eastbound Regent at Owen
501;49.8954274957;-97.0422590916;Westbound Regent at Owen
502;49.8916475228;-97.0458650991;Eastbound Rougeau at Perry
503;49.8918823473;-97.0464543284;Westbound Rougeau at Wendilene
504;49.9142928821;-97.0466771266;Eastbound Concordia at Peguis
505;49.9486289557;-97.0926561976;Eastbound Whellams Lane at Whellams Loop
506;49.9181719234;-97.0404185057;Eastbound Concordia at Whittington
507;49.9142374753;-97.0471251267;Westbound Concordia at Peguis
508;49.8934520575;-96.9724539472;Westbound Pandora at Ravenhurst
509;49.9178672432;-97.0404865829;Eastbound Concordia at Whittington
510;49.9150476602;-97.0450307144;Eastbound Concordia at Pinetop
511;49.8932695364;-96.9712780483;Eastbound Pandora at Ravenhurst
512;49.8862609451;-97.1663538986;Eastbound Portage at Canora
513;49.8868205207;-97.1642026318;Eastbound Portage at Broadway
514;49.8877984462;-97.1606431977;Eastbound Portage at Maryland
515;49.8678190044;-97.3085962077;Northbound Bedson at Assiniboine
516;49.894216606;-97.2779180166;Southbound Sturgeon at Silver
517;49.8846887649;-97.1733045422;Eastbound Portage at Lipton
518;49.880200765;-97.2717630113;Eastbound Lodge at Ronald
519;49.8824569711;-97.2789072246;Southbound Sturgeon at Hallonquist
520;49.9428110228;-97.1476212308;Westbound Jefferson at Airlies West
521;49.9387781876;-97.2010568298;Southbound Dexter at Ostafiew Farm
522;49.9443631784;-97.1524401961;Westbound Jefferson at Fir
523;49.9438993504;-97.1509944047;Westbound Jefferson at Tulip
524;49.8580907117;-97.1534789781;Southbound Stafford at Taylor
525;49.8593072946;-97.1541839585;Northbound Stafford at Ebby
526;49.9463570707;-97.1115499635;Eastbound Templeton at Main
527;49.8565286355;-97.151980237;Northbound Pembina at Stafford
528;49.856893103;-97.1522724268;Southbound Pembina at Stafford
529;49.8573982958;-97.1523644642;Northbound Stafford at Stafford Loop
530;49.8626693359;-97.1484202297;Northbound Pembina at Arbuthnot
531;49.8608853378;-97.1499216299;Southbound Pembina at Ebby
532;49.8596397879;-97.1502196621;Northbound Pembina at Jackson
533;49.8583822565;-97.1508938085;Northbound Pembina at Taylor
534;49.9298940555;-97.1224771675;Northbound Main at McAdam
535;49.9125612079;-97.0808187319;Southbound London at Munroe
536;49.9135195693;-97.080028476;Southbound London at Government
537;49.9082041397;-97.1300747187;Westbound Euclid at Granville
538;49.95215283;-97.1837180374;Northbound Mandalay at Margate
539;49.954938653;-97.1755410324;Eastbound Adsum at Manila
540;49.9549066525;-97.1786512177;Eastbound Adsum at Desharnais
541;49.955036675;-97.1783395959;Westbound Adsum at Desharnais
542;49.9550579392;-97.1762614892;Westbound Adsum at Manila
543;49.9545675043;-97.1839757225;Southbound Mandalay at Adsum
544;49.9056078982;-97.125829758;Westbound Sutherland at Disraeli
545;49.9548919272;-97.1805757125;Eastbound Adsum at Ashmore
546;49.9546096119;-97.1837928989;Northbound Mandalay at Adsum
547;49.8754996701;-97.2641642775;Eastbound Portage at Lake
548;49.8761430983;-97.2662846964;Eastbound Portage at Windham
549;49.8772767993;-97.2705172544;Eastbound Portage at Old Mill
550;49.8778441819;-97.2729746096;Eastbound Portage at Woodhaven
551;49.8787057449;-97.2764655027;Eastbound Portage at Oakdean
552;49.8792418953;-97.278645716;Eastbound Portage at Sturgeon
553;49.8795717501;-97.280262595;Eastbound Portage at Woodlands
554;49.8800294826;-97.2832251837;Eastbound Portage at Country Club
555;49.8933204977;-97.0115304624;Eastbound Pandora at Madeline
556;49.8949982731;-97.0076183172;Eastbound Regent at Winona
557;49.9052828441;-97.011985645;Northbound Madeline at McMeans
558;49.9055034993;-97.0117398043;Westbound McMeans at Madeline
559;49.9038171958;-97.0120180469;Northbound Madeline at Newman
560;49.9041711045;-97.0121984778;Southbound Madeline at Newman
561;49.8749266577;-97.2577545104;Eastbound Portage at Rita
562;49.8748384414;-97.2614599806;Eastbound Portage at Ainslie
563;49.9016674686;-97.2023679584;Northbound Century at Wellington
564;49.8912703837;-97.2152294811;Northbound Roseberry at St. Matthews
565;49.9038956344;-97.2022015732;Northbound Century at Wellington North
566;49.8943421222;-97.2149351439;Northbound Roseberry at Ellice
567;49.9052984293;-97.2068150484;Southbound King Edward at Saskatchewan
568;49.9009155066;-97.207242149;Southbound King Edward at Wellington South
569;49.9016520232;-97.2071730692;Southbound King Edward at Wellington
570;49.908214289;-97.2045898453;Northbound Century at Saskatchewan North
571;49.9049829637;-97.2021332956;Northbound Century at Saskatchewan
572;49.803710324;-97.1091707543;Westbound Burland at Knotsberry
573;49.924075132;-97.1437277864;Eastbound Mountain at McGregor
574;49.9226153693;-97.1446894587;Southbound McGregor at Boyd
575;49.9333967324;-97.1733168164;Eastbound Mountain at Fife West
576;49.8962200871;-97.0647852481;Northbound Crossroads Station Access at Regent South
577;49.9283243088;-97.1400253153;Northbound McGregor at Cathedral
578;49.9271915527;-97.1411836113;Southbound McGregor at Machray
579;49.9270450393;-97.1410220445;Northbound McGregor at Church
580;49.9259832941;-97.1421218222;Southbound McGregor at Anderson
581;49.9257032812;-97.142048989;Northbound McGregor at Anderson
582;49.9240277873;-97.143019036;Westbound Mountain at McGregor
583;49.9239128756;-97.1437061538;Southbound McGregor at Mountain
584;49.9241751912;-97.1432362959;Northbound McGregor at Mountain
585;49.9329179915;-97.1709101848;Westbound Fife at Fife Loop
586;49.9102969681;-97.139938924;Southbound Robinson at Dufferin
587;49.9451451742;-97.1552259152;Eastbound Jefferson at McPhillips West
588;49.947284416;-97.137148372;Southbound Sinclair at Kingsbury
589;49.9388657048;-97.0820872399;Eastbound Edison at Roch East
590;49.944468581;-97.206057871;Eastbound Kinver at King Edward
591;49.9284471771;-97.1686131257;Westbound Aberdeen at McPhillips
592;49.9049432098;-97.0678901441;Southbound Panet at Keenleyside
593;49.899194192;-97.0732166118;Westbound Nairn at Panet West
594;49.9008148656;-97.0716898004;Eastbound Talbot at Panet
595;49.9472395472;-97.1287864384;Eastbound Leila at Ambassador
596;49.9349779573;-97.1471551514;Westbound Inkster at Sinclair
597;49.9315040651;-97.0688765188;Southbound Raleigh at Edison South
598;49.8588297168;-97.0600878411;Westbound Paterson at Peterboro
599;49.9301784633;-97.0702950973;Northbound Raleigh at Oakland
600;49.9163125599;-97.0775911285;Northbound London at Simpson
601;49.8980901335;-97.0668827827;Westbound Regent at Lagimodiere
602;49.8913204554;-97.0218464283;Westbound Kernaghan at Hoka West
603;49.8911874253;-97.0209050743;Eastbound Kernaghan at Hoka West
604;49.8610966854;-97.0703217555;Westbound Cottonwood at Brebeuf
605;49.9471558393;-97.1736884634;Eastbound Mapleton at Sheppard
606;49.8611122734;-97.0674825331;Westbound Cottonwood at Westmount
607;49.861134222;-97.0661040998;Eastbound Cottonwood at Maywood
608;49.9336757703;-97.0658771584;Northbound Raleigh at Edison
609;49.9314295976;-97.0687262109;Northbound Raleigh at Edison South
610;49.8590172845;-97.0653816079;Southbound Westmount at Maywood
611;49.953011204;-97.1708181554;Westbound Jefferson at Maevista
612;49.8150785172;-97.1096173813;Westbound Britannica at Sandrington
613;49.8149229729;-97.1094566258;Eastbound Britannica at Sandrington
614;49.8147033298;-97.1064763987;Southbound Paddington at Tufnell
615;49.8828557148;-97.1106602338;Westbound Goulet at Des Meurons
616;49.8827312858;-97.1140617839;Westbound Goulet at Braemar
617;49.8917516566;-97.1123039002;Southbound Des Meurons at De La Cathedrale
618;49.8927434325;-97.1124462099;Southbound Des Meurons at Provencher Sud
619;49.8898635822;-97.1118067271;Northbound Des Meurons at Deschambault
620;49.8064346156;-97.1107463776;Westbound Warde at St. Mary's East
621;49.8886735861;-97.1116443283;Northbound Des Meurons at Cabana
622;49.890192191;-97.1121002089;Southbound Des Meurons at Deschambault
623;49.8865012553;-97.1113671346;Northbound Des Meurons at Gaboury
624;49.8885875512;-97.1118843695;Southbound Des Meurons at Hamel
625;49.9186563971;-97.1683432967;Westbound Jarvis at McPhillips East
626;49.9183322899;-97.1677565438;Eastbound Jarvis at McPhillips East
627;49.9189222324;-97.1697960005;Northbound McPhillips at Jarvis (McPhillips Station)
628;49.9217872155;-97.1638360453;Westbound Selkirk at Battery
629;49.9217309119;-97.1642561455;Eastbound Selkirk at Battery
630;49.9178708123;-97.1658794322;Westbound Jarvis at Sinclair
631;49.9176980257;-97.1657606108;Eastbound Jarvis at Sinclair
632;49.8054894319;-97.1643485851;Westbound Markham at Forest Lake
633;49.9201948246;-97.1700682369;Southbound McPhillips at Jarvis North (McPhillips Station)
634;49.938662123;-97.1351534765;Eastbound Jefferson at McKenzie
635;49.8263749477;-97.1111793139;Westbound St Vital Centre Terminal at St. Vital Centre (51, 93)
636;49.8264369663;-97.1111212794;Eastbound St Vital Centre Terminal at St. Vital Centre (14 St. Mary's)
637;49.8265061595;-97.1109517276;Eastbound St Vital Centre Terminal at St. Vital Centre (16 Selkirk)
638;49.9395825358;-97.1375708896;Westbound Jefferson at Parr
639;49.8266775529;-97.1104305744;Eastbound St Vital Centre Terminal at St. Vital Centre (55 via Dakota)
640;49.840107161;-97.081992419;Southbound Shorehill at Bishop Grandin
641;49.8385082304;-97.0810403924;Southbound Shorehill at Aubin
642;49.836502674;-97.0783521714;Southbound Shorehill at Beaudry
643;49.8343756216;-97.0764755999;Southbound Shorehill at Wildfire
644;49.9379517848;-97.1329370846;Eastbound Jefferson at McGregor
645;49.9187960683;-97.0771022716;Southbound London at Kimberly
646;49.9349556894;-97.0964292938;Southbound Henderson at Northdale
647;49.935897375;-97.0951657959;Southbound Henderson at Fraser's
648;49.8950560255;-97.0156921846;Eastbound Regent at Hoka
649;49.938311751;-97.0926594911;Southbound Henderson at Cheriton
650;49.9290427159;-97.1028072693;Southbound Henderson at Dunrobin
651;49.9218524515;-97.074821172;Southbound London at Antrim
652;49.9315054137;-97.1004949031;Southbound Henderson at Greene
653;49.9327184226;-97.0993184487;Southbound Henderson at Leighton
654;49.8955269436;-97.1082855501;Eastbound Provencher at La Fleche
655;49.9261283527;-97.1055551094;Southbound Henderson at Chelsea
656;49.9214852881;-97.0749193911;Northbound London at Antrim
657;49.9349314101;-97.2152055529;Eastbound Manitoba at Egesz
658;49.919779365;-97.0952299313;Northbound Watt at Neil
659;49.8928808785;-97.1527501445;Eastbound Ellice at Balmoral
660;49.8913988775;-97.137727775;Northbound Fort at St. Mary
661;49.8807220129;-97.1355077026;Southbound Southwest Transitway at Harkness Station
662;49.8382966867;-97.0932740157;Westbound Bishop Grandin at St. Anne's
663;49.8232016276;-97.1384986408;Westbound Bishop Grandin at River
664;49.8081650318;-97.0983223799;Eastbound Burland at John Forsyth
665;49.883292092;-97.2012965675;Northbound St James at Ness South
666;49.90155636;-97.1395370242;Westbound Rupert at Princess
667;49.8732830551;-97.1410970221;Southbound Southwest Transitway at Osborne Station
668;49.8811661308;-97.1345996884;Northbound Southwest Transitway at Harkness Station
669;49.8934725634;-97.0156735944;Westbound Pandora at Hoka
670;49.8538814925;-97.0751168705;Westbound Vermillion at Clearwater
671;49.8754121391;-97.2529629673;Eastbound Portage at Vernon
672;49.8755931175;-97.299555908;Northbound Rouge at Sansome
673;49.8854539632;-97.1529362222;Eastbound Broadway at Balmoral
674;49.8816136035;-97.1563541079;Eastbound Westminster at Langside
675;49.8822149413;-97.1545771966;Northbound Balmoral at Spence
676;49.8823441218;-97.1547810812;Southbound Balmoral at Spence
677;49.9100565024;-97.1860102908;Westbound Notre Dame at Valour
678;49.8951976692;-97.0124140931;Westbound Regent at Madeline
679;49.8320050524;-97.0886681649;Northbound St Anne's at Granby
680;49.8723357735;-97.3000878434;Southbound Rouge at Browning
681;49.8950341982;-97.0123233383;Eastbound Regent at Madeline
682;49.9442843379;-97.199402116;Northbound Dexter at Kinver
683;49.8288306783;-97.1029350955;Eastbound Meadowood at Wakopa
684;49.8303902043;-97.1003988361;Eastbound Meadowood at Brentford
685;49.831550257;-97.0976416792;Eastbound Meadowood at Ashworth
686;49.8304291275;-97.1005780872;Westbound Meadowood at Brentford
687;49.828475899;-97.1043395052;Westbound Meadowood at Hollyhock
688;49.8074104575;-97.2152718411;Southbound Scurfield at Izatt School
689;49.8263591536;-97.0932150758;Southbound Ashworth at Whitley
690;49.9007157099;-97.015794203;Eastbound Kildare at Hoka
691;49.8065490459;-97.2084235867;Eastbound Scurfield at Sheffield
692;49.8044820806;-97.2097090418;Eastbound Scurfield at Beacon Hill
693;49.803510683;-97.2132054746;Eastbound Scurfield at Vineland
694;49.869393539;-97.2110815929;Southbound Edgeland at Tuxedo
695;49.8668130178;-97.2111490948;Northbound Edgeland at Corydon
696;49.8952165422;-97.016660322;Westbound Regent at Hoka
697;49.8674657548;-97.0806305877;Southbound De Bourmont at Autumnwood
698;49.8693465734;-97.0806812819;Northbound De Bourmont at Fontaine
699;49.8668131772;-97.078165431;Northbound Autumnwood at De Bourmont Bay
700;49.8673327551;-97.0802044487;Northbound Autumnwood at De Bourmont
701;49.8652407434;-97.0777268661;Eastbound Betournay at Autumnwood
702;49.8656796154;-97.0781547565;Northbound Autumnwood at Betournay
703;49.8653786902;-97.075202607;Westbound Betournay at Howden
704;49.8652558776;-97.0759311152;Eastbound Betournay at Heather
705;49.90083741;-97.0165969306;Westbound Kildare at Hoka
706;49.8691962941;-97.0808403264;Southbound De Bourmont at Fontaine
707;49.8666006696;-97.0783686933;Southbound Autumnwood at De Bourmont Bay
708;49.8733332861;-97.1736356218;Eastbound Academy at Cambridge
709;49.8769839108;-97.1441423924;Southbound Osborne at Wardlaw
710;49.8735582598;-97.1753529846;Westbound Academy at Oxford
711;49.8389993123;-97.2058475591;Northbound Lowson at Lowson North
712;49.8736658816;-97.1781882358;Westbound Academy at Montrose
713;49.8734576079;-97.1769573615;Eastbound Academy at Waverley
714;49.8737609467;-97.1808012796;Westbound Academy at Oak
715;49.8764493351;-97.1483942687;Eastbound Stradbrook at Nassau
716;49.8738594453;-97.1836368956;Westbound Academy at Waterloo
717;49.8736542869;-97.1826007308;Eastbound Academy at Ash
718;49.9017215845;-97.2122535561;Westbound Wellington at Berry West
719;49.8818064219;-97.0873006311;Eastbound Marion at Panet West
720;49.8776657066;-97.1445895102;Northbound Osborne at Stradbrook
721;49.8819665942;-97.0877397626;Westbound Marion at Panet West
722;49.924908213;-97.1457578654;Westbound Mountain at McKenzie
723;49.8731351592;-97.152084052;Eastbound Wellington at Hugo
724;49.8414271383;-97.0943748538;Northbound St Anne's at Beliveau
725;49.8723402996;-97.1541324763;Eastbound Wellington at Cockburn
726;49.7711417279;-97.1623827153;Eastbound Grandmont at Delorme East
727;49.881973395;-97.0897858346;Westbound Marion at Dupuy East
728;49.8758226778;-97.1502694435;Eastbound Stradbrook at Wellington
729;49.8817956496;-97.0953750223;Eastbound Marion at Nicolas
730;49.9409563267;-97.185003273;Westbound Church at CPR Arborg
731;49.8743945726;-97.1509642593;Eastbound Wellington at Wardlaw
732;49.8818011969;-97.092980456;Eastbound Marion at Dupuy
733;49.8657877786;-97.3001089698;Westbound Assiniboine at Rouge
734;49.8186934522;-97.1790998661;Northbound Waverley at Scurfield
735;49.8560275551;-97.1594846178;Westbound Taylor at Wilton
736;49.8709135697;-97.0911268788;Eastbound Elizabeth at Arundel
737;49.8793150489;-97.3203741994;Southbound St Charles at Allard
738;49.8654865932;-97.2973642402;Westbound Assiniboine at Longfellow
739;49.7772053101;-97.1664038464;Northbound Bairdmore at Point West
740;49.834060765;-97.158302237;Westbound Clarence at Donnelly
741;49.8710343721;-97.09081593;Westbound Elizabeth at Arundel
742;49.8527527577;-97.3073832391;Northbound Charleswood at West Park
743;49.7647396503;-97.1535010684;Southbound Pembina at Des Trappistes
744;49.7681060092;-97.1564562719;Southbound Pembina at Ducharme
745;49.778500383;-97.1686608479;Northbound Bairdmore at Millstream
746;49.8683800065;-97.2602584714;Westbound Roblin at Princeton
747;49.8683505182;-97.258297299;Eastbound Roblin at Varsity View
748;49.8685535234;-97.2580394982;Westbound Roblin at Varsity View
749;49.8683141171;-97.2570739537;Eastbound Roblin at McLean
750;49.8684012361;-97.2550946668;Westbound Roblin at Elmhurst
751;49.868177297;-97.2545599933;Eastbound Roblin at Lynbrook
752;49.8680726423;-97.252392797;Eastbound Roblin at Wexford
753;49.8682752525;-97.2527055647;Westbound Roblin at Wexford
754;49.8679200533;-97.2500325119;Eastbound Roblin at Chalfont
755;49.8681236707;-97.2498164059;Westbound Roblin at Chalfont
756;49.8456485529;-97.1533549908;Southbound Pembina at North Drive
757;49.8725125154;-97.2998728725;Northbound Rouge at Browning
758;49.9048512985;-97.0683116356;Eastbound Keenleyside at Panet
759;49.8413273268;-97.1531301916;Northbound Pembina at Oakenwald
760;49.8401163979;-97.1522166428;Northbound Pembina at Waller
761;49.8426152821;-97.1532341129;Northbound Pembina at Riverwood
762;49.8699827687;-97.3003374571;Southbound Rouge at Erlandson
763;49.8377997396;-97.1513453106;Southbound Pembina at Kelsey
764;49.8369431681;-97.1506547798;Northbound Pembina at Fletcher
765;49.8390682757;-97.1519228012;Southbound Pembina at Radisson
766;49.8391600576;-97.1514742364;Northbound Pembina at Dowker
767;49.9404294826;-97.1215101279;Southbound Salter at Burrin
768;49.8674805256;-97.2364799953;Westbound Roblin at Shaftesbury West
769;49.9427734919;-97.1196209262;Northbound Salter at Forrest
770;49.933419274;-97.2098963126;Eastbound Manitoba at Bentley
771;49.94091395;-97.1208780282;Northbound Salter at Burrin
772;49.9376139713;-97.1237240686;Southbound Salter at Hartford
773;49.8542644429;-97.1465154708;Westbound Jubilee at Riverside
774;49.9365523658;-97.1242670157;Northbound Salter at St. Anthony
775;49.9393108365;-97.1224177414;Southbound Salter at Kilbride
776;49.8782941368;-97.2936148978;Southbound Westwood at Amundsen
777;49.9141807641;-97.0694850777;Southbound Louelda at Concordia
778;49.9376806945;-97.1234009327;Northbound Salter at Hartford
779;49.7953003985;-97.1571468344;Northbound Pembina at Dalhousie North
780;49.89110756;-97.0315179753;Southbound Atwood at Ranchgrove
782;49.8911964524;-97.0288132142;Eastbound Kernaghan at Robson
783;49.7898861731;-97.1543789827;Northbound Baylor at Killarney
784;49.7902510772;-97.1546985746;Westbound Killarney at Baylor
785;49.7895919902;-97.1562380768;Eastbound Killarney at Pembina East
786;49.7897892799;-97.1545077129;Southbound Baylor at Killarney
787;49.7923312172;-97.1576624891;Southbound Pembina at Greencrest
788;49.789624491;-97.1565841948;Westbound Killarney at Pembina East
789;49.7939758928;-97.157572286;Southbound Pembina at Bairdmore
790;49.7925944952;-97.1572495455;Northbound Pembina at Greencrest
791;49.8912894217;-97.028990431;Westbound Kernaghan at Robson
792;49.9252722876;-97.1303617604;Eastbound Cathedral at Aikins
793;49.8913112282;-97.0313286833;Northbound Atwood at Kernaghan
794;49.8933713427;-97.0313423138;Northbound Atwood at Pandora
795;49.8924345487;-97.0286235281;Southbound Robson at Peake
796;49.880060031;-97.1107693703;Southbound Des Meurons at Eugenie
797;49.9217482215;-97.041792105;Northbound McLellan at Williamson
798;49.8944362705;-97.2105455769;Eastbound Ellice at Berry
799;49.8946630681;-97.2124169507;Westbound Ellice at Marjorie
800;49.8802202015;-97.1434614968;Westbound River at Bryce
801;49.8809838756;-97.1411631895;Westbound River at Cauchon
802;49.8942167539;-97.2033410396;Eastbound Ellice at Century
803;49.8944387056;-97.2048922975;Westbound Ellice at Century West
804;49.894274156;-97.2053022014;Eastbound Ellice at Century West
805;49.8945134756;-97.2073958673;Westbound Ellice at King Edward
806;49.8943613533;-97.2080280883;Eastbound Ellice at King Edward
807;49.8945766196;-97.2097327847;Westbound Ellice at Berry
808;49.8948568102;-97.2098198851;Northbound Berry at Ellice
809;49.8946710363;-97.2100216983;Southbound Berry at Ellice
810;49.84389565;-97.1265622182;Westbound South at Wildwood J
811;49.8523347171;-97.2567863271;Westbound Eldridge at Elmhurst
812;49.8591937364;-97.2630929409;Westbound Grant at Bramble
813;49.8627285424;-97.3135746143;Northbound Dale at Roblin
814;49.9040454169;-97.1315585975;Eastbound Higgins at Maple
815;49.7853386472;-97.1529402439;Southbound Baylor at Leeds
816;49.7863904424;-97.1529002384;Southbound Baylor at Bryn Mawr
817;49.8813520254;-97.2014800329;Northbound St James at Portage
818;49.948419879;-97.2050607463;Eastbound Garton at Forest Cove
819;49.8877850409;-97.2010042571;Northbound St James at Maroons
820;49.8849273694;-97.2011801008;Northbound St James at Ness North
821;49.9035749882;-97.1269391326;Eastbound Higgins at Waterfront
822;49.90444362;-97.1333815883;Westbound Higgins at Main
823;49.936290061;-97.074315471;Eastbound Edison at MacAulay
824;49.8668074588;-97.2201252173;Westbound Corydon at Park
825;49.8665193646;-97.218939025;Eastbound Corydon at Lamont
826;49.8669167534;-97.2231410098;Westbound Corydon at Kelvin
827;49.8666601897;-97.220492449;Eastbound Corydon at Park
828;49.8663296206;-97.2136300871;Eastbound Corydon at Southport
829;49.8990821978;-97.0735135117;Eastbound Nairn at Panet West
830;49.8667727937;-97.2178720774;Westbound Corydon at Handsart
831;49.8664412269;-97.2167849124;Eastbound Corydon at Handsart
832;49.901109289;-97.072625044;Westbound Talbot at Clyde
833;49.8670773515;-97.2259879412;Westbound Corydon at Laidlaw
834;49.8667587771;-97.2233972969;Eastbound Corydon at Kelvin
835;49.894456894;-97.137150555;Westbound Pioneer at Main
836;49.8935585266;-97.134428206;Westbound Pioneer at Westbrook
837;49.8951133479;-97.1371391998;Eastbound Portage at Main
838;49.8953304384;-97.1372143864;Westbound Portage at Main
839;49.8961332266;-97.142391306;Westbound Notre Dame at King
840;49.894819022;-97.1356188593;Westbound Portage at Westbrook
841;49.897648486;-97.1471372803;Westbound Notre Dame at Dagmar
842;49.8968054027;-97.1444820739;Westbound Notre Dame at Adelaide
843;49.8993993977;-97.1525708249;Westbound Notre Dame at Isabel
844;49.8982823945;-97.1490903895;Westbound Notre Dame at Gertie
845;49.9093659572;-97.1844204994;Eastbound Notre Dame at Clifton
846;49.8797333425;-97.2991181474;Northbound Rouge at Davis
847;49.8823464441;-97.2988175085;Northbound Rouge at Portage
848;49.881990104;-97.2990527601;Southbound Rouge at Portage
849;49.8755869874;-97.2997509833;Southbound Rouge at Sansome
850;49.8773202722;-97.2995648327;Southbound Rouge at Galinee
851;49.8786197751;-97.2992407936;Northbound Rouge at Ericsson
852;49.8785597041;-97.2994377762;Southbound Rouge at Allard
853;49.8932806749;-97.0408421821;Southbound Bournais at Pandora
854;49.891914314;-97.0414266141;Southbound Bournais at Dzyndra
855;49.893312862;-97.0406180943;Northbound Bournais at Pandora
856;49.8920449099;-97.0411707012;Northbound Bournais at Dzyndra
857;49.8669999314;-97.3042551641;Westbound Assiniboine at Maureen
858;49.867387438;-97.3061481142;Westbound Assiniboine at Raquette
859;49.8936724511;-97.0347693205;Westbound Pandora at Heartstone
860;49.8935499244;-97.03444012;Eastbound Pandora at Heartstone
861;49.8937302491;-97.1819719548;Westbound Ellice at Wall
862;49.8935539815;-97.1816304817;Eastbound Ellice at Wall
863;49.918926176;-97.1952620883;Southbound Keewatin at Ross
864;49.904512596;-97.0475875356;Northbound Peguis at Ravelston
865;49.9115041293;-97.0471937562;Northbound Peguis at Prairie Crocus North
866;49.9110844662;-97.0473778575;Southbound Peguis at Prairie Crocus North
867;49.9001760848;-97.0512719525;Southbound Peguis at Almey
868;49.8974121185;-97.0532632133;Southbound Peguis at Regent
869;49.8937599823;-97.1884593963;Eastbound Ellice at Valour
870;49.882839881;-97.2540173221;Northbound Whytewold at Bruce
871;49.8977820037;-97.1954523432;Southbound Empress at Sargent
872;49.8796507196;-97.2542854829;Northbound Whytewold at Lodge
873;49.8795232424;-97.2030374095;Northbound Kintyre at Portage
874;49.893670143;-97.1855944333;Eastbound Ellice at Clifton
875;49.8936134983;-97.1837029068;Eastbound Ellice at Erin
876;49.8798334574;-97.2544737699;Southbound Whytewold at Lodge
877;49.8973377223;-97.0595464524;Northbound Kildonan Place Terminal at Kildonan Place (47, 87, 92)
878;49.9386929083;-97.1606987217;Southbound McPhillips at Inkster
879;49.9403349404;-97.159312134;Southbound McPhillips at Lansdowne
880;49.9420025933;-97.1578408457;Southbound McPhillips at Mapleglen
881;49.9419332401;-97.1574392928;Northbound McPhillips at Northgate (Park & Ride)
882;49.9065534329;-97.1281190375;Eastbound Euclid at Argyle
883;49.9404784612;-97.1587212911;Northbound McPhillips at Lansdowne
884;49.9363192408;-97.1466577413;Southbound Sinclair at Carruthers
885;49.9365557131;-97.1462584506;Northbound Sinclair at Dahlia
886;49.9381103508;-97.1450420313;Northbound Sinclair at Primrose South
887;49.8971584081;-97.0595814963;Northbound Kildonan Place Terminal at Kildonan Place (45, 85)
888;49.8859433977;-97.0532652394;Westbound Dugald at Mazenod West
889;49.852242359;-97.0782426714;Northbound Lakewood at Meadowbrook
890;49.9373384887;-97.1306055088;Westbound Jefferson at Andrews
891;49.9363608444;-97.1279954476;Eastbound Jefferson at Powers
892;49.916411412;-97.0770439027;Eastbound Concordia at London
893;49.9448138076;-97.1245176114;Eastbound Partridge at Andrews
894;49.9440088536;-97.1220260022;Eastbound Partridge at Powers
895;49.9456519944;-97.1235093262;Westbound Leila at Andrews
896;49.9119373647;-97.1440685125;Eastbound Dufferin at Salter
897;49.869643246;-97.1570465434;Westbound Corydon at Lilac
898;49.9226339044;-97.0731320825;Northbound London at Hobbs
899;49.9226486863;-97.0734798038;Southbound London at Hobbs
900;49.9236611667;-97.0705414334;Southbound London at Reay
901;49.9233887706;-97.070928491;Northbound London at Reay
902;49.918566253;-97.0768049275;Westbound Kimberly at London
903;49.9048063717;-97.1701910319;Eastbound Notre Dame at Burnell
904;49.9270076207;-97.135338578;Westbound Cathedral at Powers
905;49.9276800482;-97.134643806;Eastbound Bannerman at Powers
906;49.8750830026;-97.2561900142;Eastbound Portage at Olive
907;49.8856108907;-97.1526239561;Westbound Broadway at Balmoral
908;49.8752150821;-97.2548073233;Eastbound Portage at Whytewold
909;49.8701580297;-97.1554821402;Westbound Corydon at Arbuthnot
910;49.8755761015;-97.2507161513;Eastbound Portage at Strathmillan
911;49.8756915513;-97.2488329602;Eastbound Portage at Mount Royal West
912;49.8759130226;-97.2456375597;Eastbound Portage at Mount Royal
913;49.8763775808;-97.2412780371;Eastbound Portage at Conway
914;49.8767118026;-97.2384125058;Eastbound Portage at Sharp
915;49.8770788149;-97.2347523514;Eastbound Portage at Woodlawn (Deer Lodge Centre)
916;49.9008233082;-97.0126285364;Westbound Kildare at Madeline
917;49.9006950756;-97.0124945441;Eastbound Kildare at Madeline
918;49.8820103624;-97.1637725926;Westbound Westminster at Walnut
919;49.8833747134;-97.1528485304;Northbound Balmoral at Granite
920;49.8934450935;-97.0125000276;Westbound Pandora at Madeline
921;49.8709136281;-97.1532265679;Westbound Corydon at Cockburn
922;49.9015851756;-97.2086656474;Westbound Wellington at Berry
923;49.9013561591;-97.2066548447;Eastbound Wellington at King Edward
924;49.8777544869;-97.1445165101;Eastbound Stradbrook at Osborne
925;49.9014195879;-97.2095909044;Eastbound Wellington at Berry
926;49.9054073249;-97.2243872137;Westbound Wellington at Airport Terminal (Rte 20)
927;49.9015008857;-97.2119414128;Eastbound Wellington at Berry West
928;49.9053390589;-97.2240415396;Westbound Wellington at Airport Terminal (Rte 15)
929;49.9025220876;-97.2268745637;Southbound Wellington at Greyhound Terminal
930;49.9067081611;-97.1755647939;Westbound Notre Dame at Garfield
931;49.8802859495;-97.1369165146;Eastbound Stradbrook at Donald East
932;49.8787928956;-97.1414004505;Eastbound Stradbrook at Scott
933;49.9015173286;-97.20660709;Westbound Wellington at King Edward
934;49.9012807215;-97.2041091682;Eastbound Wellington at Bradford
935;49.8996459547;-97.076582582;Eastbound Nairn at Stapleton
936;49.904427401;-97.0478695196;Southbound Peguis at Ravelston
937;49.9471620606;-97.1615749146;Eastbound Jefferson at Pipeline
938;49.872467413;-97.1485744022;Westbound Corydon at Daly
939;49.9568884639;-97.1611905413;Southbound Pipeline at Mariner
940;49.9214250766;-97.1699380634;Southbound McPhillips at Selkirk South
941;49.9214726315;-97.169532236;Northbound McPhillips at Selkirk South
942;49.9231694596;-97.1693286409;Northbound McPhillips at Selkirk
943;49.9492697253;-97.1611879814;Southbound Pipeline at Blechner
944;49.9506729704;-97.1611902975;Southbound Pipeline at Manren
945;49.9520941942;-97.1611919279;Southbound Pipeline at Doubleday
946;49.9553773465;-97.1611923391;Southbound Pipeline at Adsum
947;49.9397514053;-97.2145396428;Westbound Burrows at Cutler
948;49.9306753065;-97.1735729939;Southbound Fife at Redwood
949;49.9173087484;-97.1610667857;Northbound Sinclair at Dufferin
950;49.9050566474;-97.1223414478;Westbound Sutherland at Annabella
951;49.9358259613;-97.0729124781;Eastbound Edison at Broad
952;49.9250580998;-97.0577925683;Westbound McLeod at Stefanie
953;49.9393504863;-97.2142060372;Eastbound Burrows at Benbow
954;49.9411885779;-97.2167444005;Westbound Burrows at Haddon
955;49.9372011242;-97.0766344374;Westbound Edison at De Fehr
956;49.9383373723;-97.0800594892;Westbound Edison at Rothesay
957;49.9503349354;-97.1997898402;Eastbound Garton at Inkster Garden
958;49.9491554262;-97.2014508476;Eastbound Garton at Rose Hill
959;49.9082737172;-97.0691081006;Westbound Prevette at Prevette Loop
960;49.8858911558;-97.0126154157;Eastbound Dugald at Bates East
961;49.9219418826;-97.1543284744;Northbound Arlington at Burrows
962;49.9232212731;-97.1533322033;Northbound Arlington at Aberdeen
963;49.8969620488;-97.0596729239;Northbound Kildonan Place Terminal at Kildonan Place (43, 89, 90 N Transcona)
964;49.9247852068;-97.1521299377;Northbound Arlington at Boyd
965;49.9170813784;-97.1580803352;Northbound Arlington at Dufferin
966;49.919345563;-97.1562247676;Westbound Selkirk at Arlington
967;49.9196139181;-97.1561309417;Northbound Arlington at Selkirk
968;49.920653493;-97.1553250352;Northbound Arlington at Manitoba
969;49.9342140693;-97.1455121717;Eastbound Inkster at Arlington
970;49.9346942311;-97.1462880787;Westbound Inkster at Sinclair East
971;49.9009788998;-97.1066936191;Northbound Archibald at Mission North
972;49.8970964179;-97.0596396835;Southbound Kildonan Place Terminal at Kildonan Place (44)
973;49.8969445372;-97.0597014765;Southbound Kildonan Place Terminal at Kildonan Place (75, 90 Whellams)
974;49.8698056811;-97.1113226165;Northbound St Mary's at Morier
975;49.8696641209;-97.1114673097;Southbound St Mary's at Morier
976;49.8399457467;-97.2211257142;Southbound Cabela Access at Seasons of Tuxedo
977;49.8731066982;-97.1151744124;Northbound St Mary's at Caton
978;49.8730754969;-97.115467907;Southbound St Mary's at Lyndale
979;49.8742141766;-97.1168989314;Southbound St Mary's at Coniston
980;49.8749255304;-97.1174975972;Northbound St Mary's at Niverville
981;49.8709036902;-97.1124627679;Northbound St Mary's at Fifth
982;49.8708264149;-97.1126884598;Southbound St Mary's at Fifth
983;49.8719405763;-97.113716694;Northbound St Mary's at Carriere
984;49.8716522365;-97.1136861753;Southbound St Mary's at Carriere
985;49.9559600023;-97.1413447111;Eastbound Templeton at Meredith
986;49.9497981842;-97.1218147588;Westbound Templeton at Sly
987;49.9550226097;-97.1384251692;Eastbound Templeton at Garden Park
988;49.9547590064;-97.1382540942;Southbound Garden Park at Templeton
989;49.9559939643;-97.1373002345;Southbound Garden Park at Beecher
990;49.9560171223;-97.1370623273;Northbound Garden Park at Beecher
991;49.9544216207;-97.1323837881;Southbound Sinclair at Beecher
992;49.954311277;-97.1322347009;Northbound Sinclair at Beecher
993;49.9517582885;-97.1340063651;Northbound Sinclair at Ambassador
994;49.9512640877;-97.1345970315;Southbound Sinclair at Ambassador
995;49.9549980161;-97.1816033934;Westbound Adsum at Citadel
996;49.9564838173;-97.1840012205;Southbound Mandalay at Anglia
997;49.8569942671;-97.1417361083;Southbound Cockburn at Rosedale
998;49.8264430067;-97.1109402831;Westbound St Vital Centre Terminal at St. Vital Centre (14 Ellice)
999;49.8265207352;-97.110742589;Westbound St Vital Centre Terminal at St. Vital Centre (16 Osborne, 76, 96)
1000;49.8787891924;-97.0333970907;Northbound De Baets at Paquin South
1001;49.8775780605;-97.0325276133;Northbound De Baets at Camiel Sys North
1002;49.8815948404;-97.0365265933;Northbound De Baets at Paquin
1003;49.8843237278;-97.0489590746;Westbound De Baets at Mazenod
1004;49.8837986759;-97.0444975947;Westbound De Baets at Beghin
1005;49.8779404863;-97.0464881538;Eastbound Camiel Sys at Beghin East
1006;49.8822760303;-97.0496819882;Southbound Mazenod at Waters Business Park
1007;49.8899395966;-97.1192386109;Southbound Aulneau at De La Cathedrale
1008;49.8681680616;-97.1251222506;Eastbound Morley at Mabel
1009;49.8883509112;-97.1188966131;Southbound Aulneau at Hamel
1010;49.8896098748;-97.1188755113;Northbound Aulneau at De La Cathedrale
1011;49.9143881804;-97.1209064043;Westbound Hespeler at Beatrice
1012;49.915409827;-97.1240010002;Westbound Hespeler at Glenwood
1013;49.8851996002;-97.118155981;Westbound Dollard at Aulneau
1014;49.911427041;-97.1965867164;Westbound Dublin at Field
1015;49.9185433781;-97.1125811912;Southbound Henderson at Bredin
1016;49.8850917586;-97.1209305612;Westbound Dollard at Jeanne D'arc
1017;49.9160432484;-97.1142668883;Southbound Henderson at Martin
1018;49.9130837298;-97.1159145924;Southbound Henderson at Hespeler
1019;49.9246845147;-97.1069214137;Southbound Henderson at Kildonan
1020;49.9230456254;-97.1084624603;Southbound Henderson at Trent
1021;49.9218760984;-97.1095531478;Southbound Henderson at Munroe
1022;49.9199448405;-97.1113701393;Southbound Henderson at Bredin North
1023;49.8628537097;-97.1408433618;Northbound Daly at Morley (95 To Riverview)
1024;49.862548659;-97.1453774546;Southbound Fort Rouge Station at Fort Rouge Station (95 to Pan Am/Tuxedo/Polo Park)
1025;49.8404777721;-97.1177093078;Southbound Dunkirk at St. Vital
1026;49.8821518847;-97.1377216854;Westbound River at Mayfair
1027;49.8629849125;-97.1450963603;Northbound Southwest Transitway at Fort Rouge Station
1028;49.8556924745;-97.1503147452;Southbound Southwest Transitway at Jubilee Station
1029;49.8735739002;-97.140723981;Northbound Southwest Transitway at Osborne Station
1030;49.862411065;-97.1457723432;Southbound Southwest Transitway at Fort Rouge Station
1031;49.8365759885;-97.1145229984;Southbound Dunkirk at Parkville
1032;49.8682854563;-97.1223761153;Southbound Eccles at Bartlet
1033;49.9584909302;-97.1835074253;Northbound Mandalay at Anneville
1034;49.8623978422;-97.1455084649;Southbound Fort Rouge Station at Fort Rouge Station (95 to Riverview)
1035;49.8919655646;-97.1500700162;Southbound Vaughan at Portage North
1036;49.9600380409;-97.1829333032;Southbound Mandalay at Jefferson
1037;49.8847260141;-97.2313132883;Westbound Ness at Mandeville
1038;49.8872899567;-97.2784847389;Southbound Sturgeon at Ness
1039;49.9606473887;-97.1822131989;Westbound Jefferson at Cannes
1040;49.8882838837;-97.1606247442;Southbound Maryland at Portage North
1041;49.911343906;-97.1941383136;Westbound Dublin at Orange
1042;49.9604289911;-97.1826257771;Northbound Mandalay at Jefferson
1043;49.857279648;-97.2305486302;Southbound Shaftesbury at Grant
1044;49.9596610366;-97.1784020904;Eastbound Jefferson at Lavender
1045;49.9230581429;-97.1230492821;Westbound Cathedral at Emslie
1046;49.8468655654;-97.2312766887;Westbound Shaftesbury at Shaftesbury Park
1047;49.9598710838;-97.178603308;Westbound Jefferson at Idlewild
1048;49.8505223721;-97.2263020162;Eastbound West Taylor at Holland
1049;49.851073859;-97.2300101397;Eastbound West Taylor at Shaftesbury
1050;49.8500609694;-97.2185146511;Eastbound Taylor at Coleraine
1051;49.8500789001;-97.2214353727;Eastbound Taylor at Park South
1052;49.8019138315;-97.1126317753;Northbound Aldgate at Burland
1053;49.8031913987;-97.0950844588;Eastbound Aldgate at Tilstone
1054;49.8022894168;-97.0971211441;Eastbound Aldgate at Hindle
1055;49.7998923049;-97.1034271279;Eastbound Aldgate at Miner
1056;49.7999932377;-97.1035482581;Westbound Aldgate at Michaud
1057;49.798816792;-97.1086109622;Eastbound Aldgate at Faraway
1058;49.798956668;-97.1078133929;Westbound Aldgate at Eastcote
1059;49.7995804976;-97.111860894;Southbound Aldgate at Willesden
1060;49.8002235096;-97.1121277208;Northbound Aldgate at Becontree
1061;49.9361146575;-97.2248892393;Southbound Eagle at Oak Point
1062;49.8507715435;-97.2074427573;Southbound Kenaston at Taylor
1063;49.9340483315;-97.2279891734;Westbound Eagle at Brookside
1064;49.9053177337;-97.125130709;Eastbound Sutherland at Disraeli
1065;49.9458677777;-97.2127802152;Eastbound Inkster at Groverdale
1066;49.9338845962;-97.2278697602;Eastbound Eagle at Brookside
1067;49.9504514176;-97.1238246419;Westbound Templeton at Ferrier
1068;49.8180459596;-97.1222640307;Southbound River at Minnetonka
1069;49.8178784484;-97.1263577687;Southbound River at McNulty
1070;49.8193295495;-97.1154576534;Southbound River at Darwin
1071;49.8184445658;-97.1180083708;Southbound River at Nicollet
1072;49.8185776845;-97.1345609885;Southbound River at Harry Collins
1073;49.8212466236;-97.1355149788;Westbound Riel at St. Germain
1074;49.8170073627;-97.1303395737;Southbound River at McNulty
1075;49.8172581316;-97.1319425443;Southbound River at Woodlawn
1076;49.8653100625;-97.0727004707;Westbound Betournay at Speers
1077;49.8655891454;-97.0721744711;Northbound Speers at Betournay
1078;49.8668513341;-97.0723468808;Southbound Speers at Halliday
1079;49.8670732832;-97.0721710478;Northbound Speers at Halliday
1080;49.8650527258;-97.0691343413;Eastbound Betournay at Jubinville
1081;49.8651912752;-97.0693514709;Westbound Betournay at Vincent Massey West
1082;49.8650338013;-97.0653082393;Eastbound Betournay at Vincent Massey
1083;49.8651548444;-97.0655538891;Westbound Betournay at Vincent Massey
1084;49.8102545029;-97.0995748923;Westbound Warde at John Forsyth
1085;49.8214019305;-97.0997220632;Southbound Dakota at Leston
1086;49.8652352586;-97.0741507006;Eastbound Betournay at Howden
1087;49.8651361647;-97.0714410482;Eastbound Betournay at Speers
1088;49.8243284533;-97.1386500446;Southbound River at Bishop Grandin
1089;49.8351867488;-97.0534407891;Southbound De La Seigneurie at Cassin
1090;49.8233085625;-97.0876900684;Westbound Compark at Ashworth
1091;49.8706398424;-97.2918110128;Northbound Westwood at Carlyle
1092;49.8684350881;-97.1693392139;Eastbound Grosvenor at Wilton
1093;49.8696964515;-97.1654921695;Eastbound Grosvenor at Harrow
1094;49.8691815307;-97.1670564548;Eastbound Grosvenor at Guelph
1095;49.8675763469;-97.1719183872;Eastbound Grosvenor at Rockwood
1096;49.8668868155;-97.1743936752;Westbound Grosvenor at Cambridge
1097;49.8682781391;-97.1702218958;Westbound Grosvenor at Wilton
1098;49.8677282927;-97.1718569848;Westbound Grosvenor at Rockwood
1099;49.8741694157;-97.1696234363;Westbound Academy at Harrow
1100;49.8735154199;-97.1709286321;Eastbound Academy at Guelph
1101;49.8886794094;-97.158911161;Northbound Sherbrook at Portage North
1102;49.8794723302;-97.2784148057;Westbound Portage at Sturgeon
1103;49.841123894;-97.1840433708;Eastbound Lindenwood at Princemere
1104;49.838895393;-97.1830420245;Eastbound Lindenwood at Lindenwood Place
1105;49.8366492588;-97.1832096614;Southbound Lindenwood at Shorecrest
1106;49.8344567976;-97.1839315446;Southbound Lindenwood at Thorncliff
1107;49.8186006856;-97.1794926145;Southbound Waverley at Scurfield
1108;49.8526449367;-97.1759320713;Southbound Cambridge at Mathers
1109;49.8504578248;-97.295040579;Eastbound Rannock at Scotswood
1110;49.8422229444;-97.1852957396;Southbound Avon at Lindenwood West
1111;49.8549715372;-97.1626551244;Westbound Taylor at Nathaniel East
1112;49.9602622519;-97.1618009897;Eastbound Ambergate at Pipeline
1113;49.8803188191;-97.2833262808;Westbound Portage at Country Club
1114;49.8673492391;-97.2701064558;Eastbound Roblin at Oakdale
1115;49.8672868995;-97.2725579371;Westbound Roblin at Marlton North
1116;49.8979811605;-97.0641299233;Northbound Stapon at Regent North
1117;49.8681286975;-97.2608937419;Eastbound Roblin at Princeton
1118;49.8682003789;-97.2626724784;Westbound Roblin at Alcrest
1119;49.8679996741;-97.2624848493;Eastbound Roblin at Alcrest
1120;49.8679799185;-97.2653662583;Westbound Roblin at William Clement
1121;49.8677110175;-97.2660299593;Eastbound Roblin at William Clement
1122;49.8677238506;-97.2680891193;Westbound Roblin at McQuaker
1123;49.867547003;-97.2676918718;Eastbound Roblin at McQuaker
1124;49.8675351225;-97.2699049872;Westbound Roblin at Oakdale
1125;49.8246546678;-97.1198808129;Eastbound Riel at Darwin
1126;49.8494658086;-97.1530008411;Southbound Pembina at Byng
1127;49.8506844004;-97.1527039782;Southbound Pembina at Calrossie
1128;49.8495299588;-97.1525115013;Northbound Pembina at Calrossie
1129;49.8480753085;-97.1521079067;Eastbound Point at Pembina East
1130;49.9056108849;-96.9831141201;Westbound McMeans at Lancelot
1131;49.847983633;-97.1531268931;Eastbound Windermere at Pembina West
1132;49.848021037;-97.152652499;Northbound Pembina at Point Road
1133;49.8452187203;-97.1529123394;Northbound Pembina at North Drive
1134;49.8478849692;-97.1531445645;Southbound Pembina at Windermere
1135;49.9587361832;-97.1750768046;Westbound Jefferson at Manila West
1136;49.9387443677;-97.2116501245;Westbound Burrows at Palms
1137;49.9317681949;-97.1830074176;Northbound Sheppard at Burrows
1138;49.9548552019;-97.1833932947;Eastbound Adsum at Mandalay
1139;49.926887435;-97.1695221875;Eastbound Burrows at McPhillips
1140;49.8985898069;-97.1582136747;Northbound Sherbrook at Sargent North
1141;49.8814075916;-97.2900389897;Westbound Portage at School
1142;49.867101477;-97.0868795807;Northbound Drake at Applewood
1143;49.9297277965;-97.0718598242;Westbound McLeod at Raleigh
1144;49.888214404;-97.1160338973;Eastbound Hamel at Ritchot
1145;49.8354620254;-97.1101994395;Eastbound Beliveau at Dakota
1146;49.9409215393;-97.1430942958;Southbound Sinclair at Jefferson
1147;49.8344529955;-97.1665758642;Southbound Irene at Waller
1148;49.8323207695;-97.1648486783;Southbound Irene at Clarence
1149;49.8327489164;-97.1617869624;Eastbound Clarence at Irene East
1150;49.8338314573;-97.1585890833;Eastbound Clarence at Donnelly
1151;49.8696351509;-97.2104185686;Eastbound Tuxedo at Edgeland
1152;49.8571068145;-97.1555200206;Eastbound Taylor at Harrow
1153;49.7678451588;-97.158716;Eastbound Ducharme at Villeneuve
1154;49.7643959174;-97.1539446214;Westbound Des Trappistes at Pembina West
1155;49.9051742235;-97.1548292669;Northbound Sherbrook at Elgin
1156;49.9258604866;-97.1513085561;Northbound Arlington at College
1157;49.8353859536;-97.1539684734;Eastbound Clarence at Hudson
1158;49.8363729411;-97.1509964066;Eastbound Clarence at Pembina
1159;49.8871761189;-97.1202231219;Eastbound Despins at Louis Riel
1160;49.7975356552;-97.1433601677;Westbound Silverstone at Laval
1161;49.7984567936;-97.1402259858;Eastbound Silverstone at Tunis
1162;49.9448393331;-97.0648446097;Eastbound Gilmore at Greenlea
1163;49.9172827818;-97.1136055738;Southbound Henderson at Harbison
1164;49.7969611076;-97.1518588227;Westbound Dalhousie at Allegheny
1165;49.79700262;-97.1510790548;Eastbound Dalhousie at Allegheny
1166;49.7962038405;-97.1534440019;Eastbound Dalhousie at Ulster
1167;49.7963087109;-97.1538152049;Westbound Dalhousie at Ulster
1168;49.7967280461;-97.1457256072;Westbound Silverstone at McGill
1169;49.7974005878;-97.1433514375;Eastbound Silverstone at MacAlester
1170;49.7962139002;-97.1467596533;Northbound Dalhousie at Silverstone
1171;49.7965929787;-97.1457168704;Eastbound Silverstone at McGill
1172;49.815386407;-97.1025990108;Southbound Paddington at Whicker
1173;49.8153438662;-97.0869058404;Westbound Warde at Ashworth
1174;49.9270371713;-97.1642078277;Westbound Aberdeen at Sgt Tommy Prince
1175;49.9454038072;-97.0663274;Eastbound Gilmore at Evenlea
1176;49.9169959283;-97.1811249075;Eastbound Logan at Vine
1177;49.9269003412;-97.1640876245;Eastbound Aberdeen at Sgt Tommy Prince
1178;49.9287284963;-97.1687696712;Northbound McPhillips at Aberdeen
1179;49.8831543119;-97.3023806638;Westbound Portage at Sumach
1180;49.872921077;-97.1527602873;Westbound Wellington at Hugo
1181;49.8726161752;-97.1556390091;Westbound Wellington at Cockburn
1182;49.8460303013;-97.1173128005;Southbound Dunkirk at West Fernwood
1183;49.8793017995;-97.1462110931;Westbound River at Osborne
1184;49.8794682891;-97.146497034;Northbound Osborne at River
1185;49.8791720803;-97.1465362168;Southbound Osborne at River
1186;49.878726891;-97.1479452316;Westbound River at Gerard
1187;49.878048306;-97.1499477615;Westbound River at Nassau
1188;49.8775412582;-97.1514286705;Westbound River at Wellington
1189;49.8759196856;-97.1507111401;Westbound Wellington at Stradbrook
1190;49.874238315;-97.1513181869;Westbound Wellington at Wardlaw
1191;49.8589923876;-97.2634619208;Eastbound Grant at Bramble
1192;49.7673353612;-97.160596269;Westbound Ducharme at Houde
1193;49.8041730569;-97.1376998233;Southbound University at Freedman
1194;49.8442898544;-97.1164901893;Northbound Dunkirk at Norberry
1195;49.8083436525;-97.1319243742;Westbound Dafoe at U of M (72, 78)
1196;49.8082577936;-97.1321778698;Westbound Dafoe at U of M (51, 137, 162, 170)
1197;49.8817823678;-97.134325366;Westbound Stradbrook at Harkness
1198;49.8579515365;-97.1537764711;Westbound Taylor at Stafford
1199;49.9139097341;-97.1989039455;Northbound St James at Bangor
1200;49.9159043717;-97.1987599756;Northbound St James at Notre Dame
1201;49.9083663128;-97.1993193665;Northbound St James at Saskatchewan North
1202;49.9112862468;-97.1990991844;Northbound St James at Dublin
1203;49.901035437;-97.1998986923;Northbound St James at Wellington
1204;49.9059945349;-97.1995051803;Northbound St James at Saskatchewan
1205;49.8939115286;-97.2004840379;Northbound St James at Ellice
1206;49.8975322425;-97.2002100914;Northbound St James at Sargent
1207;49.8676823424;-97.2414686228;Westbound Roblin at Zoo
1208;49.8674559018;-97.2413655158;Eastbound Roblin at Zoo
1209;49.8672649777;-97.2365017615;Eastbound Roblin at Shaftesbury West
1211;49.8669598294;-97.228886812;Eastbound Corydon at Shaftesbury
1212;49.8381121824;-97.1155063461;Northbound Dunkirk at Hastings
1213;49.8668652161;-97.2262322875;Eastbound Corydon at Laidlaw
1214;49.8671926632;-97.2294071132;Westbound Corydon at Shaftesbury (Assiniboine Park)
1215;49.8388779313;-97.1161302625;Northbound Dunkirk at Moore
1216;49.8950705204;-97.1882850007;Southbound Valour at Dauphin
1217;49.8679590245;-97.2466633251;Westbound Roblin at Chalfont East
1218;49.8677176989;-97.2461710739;Eastbound Roblin at Chalfont East
1219;49.8955272925;-97.1405069165;Westbound Notre Dame at Albert
1220;49.9002303932;-97.15053376;Eastbound McDermot at Isabel
1221;49.900194467;-97.155047107;Westbound Notre Dame at Lydia
1222;49.9010664944;-97.1578408378;Westbound Notre Dame at Sherbrook
1223;49.8985926106;-97.1454300664;Eastbound McDermot at Dagmar
1224;49.898081529;-97.1438482593;Eastbound McDermot at Adelaide
1225;49.8992085691;-97.1473838789;Eastbound McDermot at Frances
1226;49.8770334481;-97.2311907241;Eastbound Portage at Overdale (Assiniboine Park)
1227;49.8972675734;-97.1413312167;Eastbound McDermot at Arthur
1228;49.8646170431;-97.1475943173;Eastbound Grant at Pembina
1229;49.8994566491;-97.2855297201;Westbound Quail Ridge at Apple West
1230;49.8976520191;-97.2851480853;Eastbound Quail Ridge at Quail West
1231;49.8993338774;-97.2857429531;Eastbound Quail Ridge at Apple West
1232;49.8812278679;-97.3207811065;Westbound Portage at St. Charles
1233;49.87267195;-97.2935903759;Southbound Westwood at Browning
1234;49.8935423143;-97.0287037011;Eastbound Pandora at Robson
1235;49.8936690888;-97.0282251142;Westbound Pandora at Robson
1236;49.8858874687;-97.0029955151;Eastbound Dugald at Goodyear
1237;49.8858882577;-97.0014779914;Eastbound Dugald at Borden
1238;49.8935288872;-97.0316143842;Eastbound Pandora at Atwood
1239;49.8936582711;-97.0307597475;Westbound Pandora at Atwood
1240;49.8950991042;-97.0313833937;Eastbound Regent at Bienvenu
1241;49.897745616;-97.2823597739;Eastbound Quail Ridge at Quail Central
1242;49.8933491758;-97.1697750676;Westbound Ellice at Arlington
1243;49.8931706722;-97.1692944878;Eastbound Ellice at Arlington
1244;49.9337141278;-97.2068613976;Southbound King Edward at Manitoba
1245;49.8934096271;-97.1770271122;Eastbound Ellice at Dominion
1246;49.893573632;-97.1771601711;Westbound Ellice at Dominion
1247;49.8935027413;-97.1800868572;Eastbound Ellice at Minto
1248;49.8936610551;-97.1798581187;Westbound Ellice at Minto
1249;49.8932514863;-97.1721318888;Eastbound Ellice at Banning
1250;49.8934093446;-97.1718752948;Westbound Ellice at Banning
1251;49.8933223574;-97.1743431009;Eastbound Ellice at Ingersoll
1252;49.8934802208;-97.1740865137;Westbound Ellice at Ingersoll
1253;49.9396741871;-97.1438391159;Northbound Sinclair at Primrose North
1254;49.9383449683;-97.1450887682;Southbound Sinclair at Cherryhill
1255;49.888744244;-97.3002075817;Westbound Ness at Cavalier
1256;49.9440484235;-97.1518807603;Eastbound Jefferson at Fir
1257;49.9447584038;-97.1540977181;Eastbound Jefferson at McPhillips East
1258;49.9448958005;-97.1548172801;Northbound McPhillips at Jefferson
1259;49.9449208813;-97.1552623614;Southbound McPhillips at Jefferson
1260;49.9438580128;-97.1557350558;Northbound McPhillips at Richardson
1261;49.9429428449;-97.1570105033;Southbound McPhillips at Dafoe
1262;49.9398998156;-97.1438861937;Southbound Sinclair at Bluebell
1263;49.8700224482;-97.308574906;Southbound Bedson at Coleridge Park
1264;49.8947517043;-96.9685980728;Southbound Ravenhurst at Edmund Gale
1265;49.9116495169;-97.199322447;Southbound St James at Dublin
1266;49.8691578472;-97.2913483759;Southbound Westwood at Leacock
1267;49.9445945783;-97.2054817086;Westbound Kinver at Cropo West
1268;49.8601286507;-97.1302617555;Northbound Osborne at Balfour
1269;49.9085679836;-97.1995625635;Southbound St James at Dublin South
1270;49.9492915716;-97.1825153195;Northbound Mandalay at Mapleton
1271;49.9284847249;-97.137134798;Eastbound Bannerman at Andrews
1272;49.9276329721;-97.1373069748;Westbound Cathedral at Andrews
1273;49.9224939105;-97.1382434729;Westbound Mountain at Powers
1274;49.922257275;-97.1380714702;Eastbound Mountain at Powers
1275;49.9232324515;-97.1405417484;Westbound Mountain at Andrews
1276;49.9232326288;-97.1411129741;Eastbound Mountain at Andrews
1277;49.9152850759;-97.1436056589;Westbound Selkirk at Salter West
1278;49.9507362159;-97.1247475852;Westbound Templeton at McGregor
1279;49.9153043315;-97.144245709;Eastbound Selkirk at Salter West
1280;49.954979934;-97.1520478173;Westbound Leila at Watson
1281;49.8883846611;-97.1584768584;Eastbound Portage at Sherbrook
1282;49.8606833463;-97.1553003325;Northbound Stafford at Carter
1283;49.8799549508;-97.1595214516;Northbound Sherbrook at Misericordia Health Ctr
1284;49.8855621426;-97.155772105;Eastbound Broadway at Young
1285;49.8817076182;-97.1588701394;Eastbound Westminster at Sherbrook
1286;49.8821025775;-97.1593840979;Northbound Sherbrook at Westminster
1287;49.8840971589;-97.1592386297;Northbound Sherbrook at Sara
1288;49.8818506478;-97.1593797587;Westbound Westminster at Sherbrook
1289;49.8864690804;-97.1590648698;Northbound Sherbrook at Broadway North
1290;49.8852291823;-97.1591538041;Northbound Sherbrook at Broadway South
1291;49.8784761401;-97.2190976422;Eastbound Portage at Ferry
1292;49.8784408036;-97.2208945566;Eastbound Portage at Rutland
1293;49.8785882058;-97.2141103245;Eastbound Portage at Riveroaks
1294;49.8785274906;-97.2165902395;Eastbound Portage at Roseberry
1295;49.8780359596;-97.2273401852;Eastbound Portage at Deer Lodge
1296;49.8210280279;-97.0819684596;Southbound St Anne's at Southglen
1297;49.8857078713;-97.1553210577;Westbound Broadway at Young
1298;49.9402808486;-97.1401641964;Eastbound Jefferson at Teakwood
1299;49.9400631245;-97.1671273966;Northbound Fife at Inkster
1300;49.8873042402;-97.1606759061;Southbound Maryland at Portage South
1301;49.8819944876;-97.1610726005;Southbound Maryland at Westminster
1302;49.8835667823;-97.1609571712;Southbound Maryland at Alloway
1303;49.9465939271;-97.1597844476;Eastbound Jefferson at Watson
1304;49.942127375;-97.1459330863;Eastbound Jefferson at Airlies East
1305;49.8785625258;-97.1602007806;Northbound Sherbrook at West Gate
1306;49.8792458808;-97.1613162292;Southbound Maryland at Woodrow
1307;49.8927753054;-97.1121943386;Northbound Des Meurons at Provencher Sud
1308;49.9116611031;-97.2070247966;Eastbound Dublin at King Edward
1309;49.9411995409;-97.1430417938;Eastbound Jefferson at Sinclair
1310;49.9343065335;-97.1705510253;Northbound Fife at Admiral
1311;49.9327555194;-97.1708745306;Westbound Mountain at Fife
1312;49.8857206712;-97.1600817804;Eastbound Broadway at Maryland
1313;49.88581887;-97.1583378348;Westbound Broadway at Furby
1314;49.8032799484;-97.1158724862;Southbound St Mary's at Normand Park
1315;49.8033383506;-97.1155922575;Northbound St Mary's at Normand Park
1316;49.9140579855;-97.0610623548;Northbound Molson at Snowdon
1317;49.9183657276;-97.0572535011;Northbound Molson at Aluthra
1318;49.9203576287;-97.0553483662;Northbound Molson at Golden Eagle
1319;49.9022689666;-97.0655737676;Eastbound Reenders at Lagimodiere East
1320;49.9041930054;-97.0682125883;Northbound Panet at Reenders
1321;49.9520604555;-97.1455376882;Northbound Garden City Terminal at Garden City Centre (17 Misericordia)
1322;49.9092769547;-97.0667001759;Southbound Molson at Brewer
1323;49.9111431392;-97.0631850557;Northbound Molson at Concordia
1324;49.950737878;-97.1950490322;Northbound Keewatin at Paramount
1325;49.9481600168;-97.1952847966;Southbound Keewatin at Inkster Garden South
1326;49.9482100468;-97.1950320131;Northbound Keewatin at Inkster Garden South
1327;49.900433559;-97.0709390723;Northbound Panet at Talbot
1328;49.9491330001;-97.2017444208;Westbound Garton at Rose Hill
1329;49.9485412791;-97.2053489673;Westbound Garton at Belton
1330;49.9547402284;-97.1950248584;Northbound Dr Jose Rizal at Adsum
1331;49.9490197676;-97.1950435625;Northbound Keewatin at Inkster Garden
1332;49.8788956421;-97.1260151958;Southbound St Mary's at Walmer
1333;49.8793763602;-97.1262610611;Northbound St Mary's at Eugenie
1334;49.8770432092;-97.1227184634;Southbound St Mary's at Enfield
1335;49.8769597857;-97.1220118198;Northbound St Mary's at Enfield
1336;49.8819342228;-97.1016199451;Eastbound Marion at Dufresne
1337;49.8821299763;-97.1025867161;Westbound Marion at Dufresne
1338;49.8810996727;-97.127697744;Northbound St Mary's at Marion
1339;49.9323297857;-97.146364872;Northbound Arlington at Atlantic
1340;49.9308430356;-97.1473276704;Westbound Cathedral at Arlington
1341;49.9307569288;-97.1475678617;Northbound Arlington at Cathedral
1342;49.9289986188;-97.1489868895;Northbound Arlington at Church
1343;49.9316553978;-97.1441332897;Eastbound Atlantic at Parr
1344;49.9258736245;-97.1493155988;Eastbound Mountain at Parr
1345;49.9193360078;-97.1567545236;Eastbound Selkirk at Arlington
1346;49.9339199383;-97.1451193315;Northbound Arlington at Inkster
1347;49.8151753186;-97.147300418;Southbound University at Thatcher
1348;49.8850042129;-97.1710652038;Eastbound Portage at Lenore
1349;49.8579768898;-97.1124100087;Southbound St Mary's at Elm Park
1350;49.9297945375;-97.1229966083;Southbound Main at McAdam
1351;49.9094803879;-97.0254631817;Southbound Plessis at Devonshire
1352;49.8934753057;-96.9763517382;Westbound Pandora at Redonda
1353;49.8935887618;-96.9684519716;Southbound Ravenhurst at Pandora
1354;49.9007303663;-96.9792094269;Eastbound Kildare at Redonda
1355;49.8939842939;-96.9787115009;Northbound Redonda at Pandora
1356;49.9489594661;-97.1333617811;Westbound Leila at Monsey
1357;49.9496414869;-97.135496133;Westbound Leila at Sinclair
1358;49.9472579599;-97.1282560256;Westbound Leila at Ambassador
1359;49.9483724703;-97.1315444255;Westbound Leila at Diplomat
1360;49.9590177311;-97.1763907237;Eastbound Jefferson at Gardenia
1361;49.9592376488;-97.1766473285;Westbound Jefferson at Gardenia
1362;49.9498516066;-97.1356971213;Southbound Sinclair at Leila
1363;49.9507867927;-97.1390345997;Westbound Leila at Jack Donner
1364;49.9224920325;-97.0496198503;Westbound Grassie at Lagimodiere
1365;49.9223728304;-97.0494853374;Eastbound Grassie at Lagimodiere
1366;49.9050076337;-97.0951154978;Eastbound Talbot at Grey
1367;49.9051563276;-97.094858948;Southbound Grey at Talbot
1368;49.8854202954;-97.1695041843;Eastbound Portage at Arlington
1369;49.8522118559;-97.0468719529;Northbound Royal Mint at Blue Mountain South
1370;49.8536645881;-97.0444760649;Northbound Royal Mint at Blue Mountain
1371;49.8199306498;-97.0814279357;Southbound St Anne's at Southglen South
1372;49.8159819894;-97.0972374577;Eastbound Southglen at Dakota East
1373;49.8161170584;-97.0972460614;Westbound Southglen at Dakota East
1374;49.8200972987;-97.0811710911;Northbound St Anne's at Southglen South
1375;49.8172496858;-97.0939207416;Westbound Southglen at Amersham
1376;49.817166035;-97.093757204;Eastbound Southglen at Amersham
1377;49.8434135611;-97.0839340934;Eastbound Beaverhill at Willowlake
1378;49.8164077307;-97.0837915736;Westbound Warde at Lanyon
1379;49.9050464773;-97.1051555609;Southbound Watt at Nairn
1380;49.904881253;-97.1049531264;Westbound Nairn at Watt
1381;49.8193838343;-97.0989808713;Northbound Dakota at Dakota Community Club
1382;49.8190578468;-97.0993968231;Southbound Dakota at Dakota Community Club
1383;49.8868743297;-97.1237988905;Northbound Tache at Despins
1384;49.8862286716;-97.1239213781;Southbound Tache at Dollard Nord
1385;49.8891563135;-97.1241837742;Southbound Tache at De La Cathedrale
1386;49.9141611874;-97.1207759289;Eastbound Hespeler at Beatrice
1387;49.9153057894;-97.1242418519;Eastbound Hespeler at Glenwood
1388;49.9116529827;-97.116987183;Southbound Henderson at Dearborn
1389;49.912901819;-97.116896751;Eastbound Hespeler at Henderson
1390;49.9061924931;-97.1114337977;Eastbound Nairn at Stadacona
1391;49.9048281237;-97.1055540799;Eastbound Nairn at Watt
1392;49.9052547244;-97.1079885831;Eastbound Nairn at Desalaberry
1393;49.8949182211;-97.1328440907;Southbound Waterfront at Lombard
1394;49.9016976889;-97.1444197155;Westbound Elgin at Ellen
1395;49.8970069545;-97.1374283221;Eastbound McDermot at Rorie
1396;49.8218996519;-97.1319445168;Eastbound Riel at Fernleaf
1397;49.8529131975;-97.1257265981;Southbound Dunkirk Ramp SB to Dunkirk SB at Kingston Row
1398;49.8960054808;-97.1333312601;Northbound Waterfront at McDermot
1399;49.8537636249;-97.1265840974;Northbound Dunkirk Ramp to Kingston at Kingston Row
1400;49.8924955845;-97.132102175;Southbound Waterfront at Pioneer
1401;49.8828517407;-97.2995375422;Westbound Portage at Cavalier
1402;49.8979880757;-97.1385881112;Westbound Bannatyne at Main
1403;49.8972282154;-97.1349690001;Westbound Bannatyne at Rorie
1404;49.9131909166;-97.0851676535;Northbound Grey at Munroe
1405;49.8970451489;-97.2637393686;Southbound Saulteaux at Saulteaux E
1406;49.8506681289;-97.2264218839;Westbound West Taylor at Holland
1407;49.8512921699;-97.2301691045;Westbound West Taylor at Shaftesbury
1408;49.8501801923;-97.2186632926;Westbound Taylor at Coleraine
1409;49.8502047593;-97.2214307527;Westbound Taylor at Park South
1410;49.7940562031;-97.1597924941;Northbound Bairdmore at Firbridge
1411;49.7947946201;-97.1575829009;Northbound Bairdmore at Pembina
1412;49.7918618642;-97.1649194472;Northbound Bairdmore at Calderwood East
1413;49.7925490893;-97.1628787101;Northbound Bairdmore at Marrington
1414;49.7878430239;-97.1701563697;Northbound Bairdmore at Sandusky
1415;49.790812648;-97.1679602952;Northbound Bairdmore at Calderwood West
1416;49.8096753593;-97.0711027318;Northbound Creek Bend at Creek Bend
1417;49.831788072;-97.0317304136;Eastbound Sage Creek at Charity
1418;49.8276311657;-97.0374890288;Westbound Warde at Red Lily
1419;49.8361319571;-97.0449470335;Eastbound Dr. David Friesen at Burning Glass
1420;49.833014966;-97.0356440082;Eastbound Sage Creek at Solstice Lane
1421;49.8127918926;-97.0751351724;Northbound St Anne's at Aldgate
1422;49.8126510689;-97.07532147;Southbound St Anne's at Aldgate
1423;49.8761643958;-97.0398647577;Eastbound Camiel Sys at Ray Marius
1424;49.9256982739;-97.2160899938;Westbound Logan at Ryan
1425;49.8221172481;-97.1292666772;Westbound Riel at Oakleaf
1426;49.8069272238;-97.1139239915;Northbound St Mary's at Warde North
1427;49.8264561478;-97.1150555618;Westbound Riel at St. Mary's
1428;49.8016118565;-97.1150755939;Westbound Burland at St. Mary's
1429;49.8050076172;-97.1148047146;Northbound St Mary's at Warde
1430;49.8229844539;-97.0882172868;Eastbound Compark at Ashworth
1431;49.8314532799;-97.0972143936;Northbound Ashworth at Meadowood
1432;49.9103559425;-97.2058056863;Northbound King Edward at Dublin South
1433;49.8228882061;-97.0900146592;Northbound Ashworth at Harlesden
1434;49.9507232952;-97.1831863219;Northbound Mandalay at Abraham
1435;49.8686325771;-97.0723594668;Southbound Speers at Bernier
1436;49.8683691117;-97.0722029544;Northbound Speers at Bernier
1437;49.8403657733;-97.0938324187;Northbound St Anne's at Lavalee
1438;49.9515614828;-97.1838657505;Southbound Mandalay at Margate
1439;49.8710480735;-97.0813097063;Westbound Elizabeth at De Bourmont
1440;49.8706638397;-97.0809213278;Southbound De Bourmont at Elizabeth
1441;49.8704947219;-97.0723688307;Southbound Speers at Elizabeth
1442;49.8713111131;-97.072238902;Northbound Speers at Elizabeth
1443;49.8709144966;-97.0873691166;Eastbound Elizabeth at Drake
1444;49.8345032261;-97.090697447;Northbound St Anne's at Meadowood
1445;49.8710492181;-97.0835503866;Westbound Elizabeth at Hansford
1446;49.8709231388;-97.0835414599;Eastbound Elizabeth at Hansford
1447;49.8745228;-97.20192862;Southbound St James at Academy
1448;49.9492135074;-97.1826994774;Southbound Mandalay at Mapleton
1449;49.8672914299;-97.1635793319;Eastbound Corydon at Harrow
1450;49.936138638;-97.2246932525;Northbound Eagle at Oak Point
1451;49.8665788101;-97.1657216128;Eastbound Corydon at Guelph
1452;49.9483021748;-97.1767954734;Westbound Mapleton at Madrigal
1453;49.8660803605;-97.1677583148;Westbound Corydon at Wilton
1454;49.8653419853;-97.1694143999;Eastbound Corydon at Rockwood
1455;49.8651703531;-97.1705063157;Westbound Corydon at Rockwood
1456;49.8646632533;-97.1720005261;Westbound Corydon at Thurso
1457;49.8644054077;-97.1721911609;Eastbound Corydon at Thurso
1458;49.9488935036;-97.1789338219;Westbound Mapleton at Neville
1459;49.9234857434;-97.1535589505;Eastbound Aberdeen at Arlington
1460;49.9487481368;-97.178841726;Eastbound Mapleton at Rozmus East
1461;49.9292808637;-97.1593570757;Westbound Mountain at Kildarroch
1462;49.8880086603;-97.2790299786;Westbound Ness at Sturgeon
1463;49.819361496;-97.1157622706;Northbound River at Darwin
1464;49.9482528428;-97.1770900693;Eastbound Mapleton at Madrill
1465;49.8199570264;-97.1136676136;Southbound River at St. Mary's
1466;49.8083688914;-97.2022267661;Westbound Columbia at Oakhill
1467;49.8091984895;-97.1988879169;Westbound Columbia at Prospect
1468;49.8155075842;-97.1968047961;Eastbound Scurfield at Kenaston
1469;49.819055992;-97.2057650953;Northbound Columbia at McGillivray
1470;49.8151721292;-97.1977903594;Eastbound Scurfield at Kenaston West
1471;49.8297297148;-97.188224642;Northbound Lindenwood at Waterbury South
1472;49.832814502;-97.1841738473;Northbound Lindenwood at Waterbury North
1473;49.8311406065;-97.1846954344;Northbound Lindenwood at Foxmeadow
1474;49.9419269002;-97.0569051502;Westbound Gilmore at Malcana
1475;49.9031705784;-97.1369959678;Northbound King at Logan
1476;49.821103933;-97.1974726379;Southbound McGillivray Kenaston Access at Canadian Tire
1477;49.8618239438;-97.0783495106;Southbound Autumnwood at Cottonwood
1478;49.9316085937;-97.1677408025;Eastbound Mountain at McPhillips West
1479;49.8880626016;-97.2814505199;Westbound Ness at Pebblewood
1480;49.8192158433;-97.1975289004;Southbound McGillivray Kenaston Access at Kenaston East
1481;49.81909746;-97.1974359822;Eastbound McGillivray Kenaston Access at Kenaston East
1482;49.8747296864;-97.3229968297;Eastbound Augier at Gagnon
1483;49.9391707339;-97.1154546226;Northbound Main at Burrin
1484;49.8211642648;-97.1973035589;Northbound Linden Ridge Ctr at Canadian Tire
1485;49.8393197999;-97.1217320746;Eastbound St Vital at Pulberry
1486;49.8826661464;-97.3139101188;Northbound Unicity West Access at Unicity (Shoppers Drugs)
1487;49.894257624;-97.2776520011;Northbound Sturgeon at Silver
1488;49.8856282141;-97.3103961647;Northbound Unicity North Access at Unicity (Sobey's)
1489;49.8746803401;-97.3214536099;Eastbound Augier at St. Charles
1490;49.8416875697;-97.0726246733;Southbound Lakewood at Bishop Grandin North
1491;49.8237327371;-97.1497403932;Eastbound Plaza at Plaza East
1492;49.8336715366;-97.0526672198;Southbound De La Seigneurie at Island Lakes
1493;49.8392424747;-97.0657120573;Southbound Island Shore at Waterfront
1494;49.8471732306;-97.1468841026;Eastbound Point at North
1495;49.8476463282;-97.1494673169;Eastbound Point at Somerset
1496;49.85073057;-97.1522153114;Northbound Pembina at Merriam
1497;49.846309332;-97.1418120397;Eastbound Point at Riverwood
1498;49.8468238495;-97.1447274258;Eastbound Point at Waterford
1499;49.885664396;-97.3122603762;Southbound Unicity North Access at Unicity (Wal-Mart)
1500;49.9406266888;-97.1148263699;Southbound Main at Forrest
1501;49.8039013597;-97.103256559;Northbound Paddington at Westbourne
1502;49.9033748787;-97.2516048712;Westbound Saskatchewan at Wihuri
1503;49.8056429231;-97.1046895528;Northbound Paddington at Burland
1504;49.9041555394;-97.1311365322;Westbound Higgins at Maple
1505;49.8651243478;-97.0859000892;Northbound Drake at Blackberry
1506;49.8939500728;-97.1521105834;Northbound Balmoral at Ellice North
1507;49.8876519712;-97.1964984215;Southbound Empress at Maroons
1508;49.9086802353;-97.151881959;Northbound Sherbrook at Henry
1509;49.9077822921;-97.1525430418;Northbound Sherbrook at Logan
1510;49.8915185734;-97.152495847;Northbound Balmoral at Balmoral Station
1511;49.8868984448;-97.1353114875;Northbound Fort at Assiniboine
1512;49.9275728009;-97.1662218003;Eastbound Aberdeen at Radford
1513;49.8978298901;-97.1522965679;Southbound Balmoral at Cumberland
1514;49.8303792062;-97.0877171318;Southbound St Anne's at Woodydell
1515;49.9258495745;-97.0891386595;Northbound Watt at Oakview
1516;49.8980596193;-97.1520371381;Northbound Balmoral at Cumberland
1517;49.9014682733;-97.1475062122;Eastbound William at Gertie
1518;49.8303181498;-97.0872884589;Northbound St Anne's at Woodydell
1519;49.7925602963;-97.1438561288;Northbound Dalhousie at St. Dunstan's
1520;49.7918654199;-97.1437159574;Southbound Dalhousie at Radcliffe
1521;49.7907904495;-97.1439932612;Northbound Dalhousie at Millikin
1522;49.7900015066;-97.1447181291;Southbound Dalhousie at Selwyn
1523;49.78898292;-97.1451460779;Northbound Dalhousie at St. Edmund's
1524;49.7879091926;-97.1460623901;Southbound Dalhousie at Greyfriars
1525;49.7871486309;-97.1463137216;Northbound Dalhousie at Rochester
1526;49.7859683513;-97.1473173957;Southbound Dalhousie at Nuffield
1527;49.8881401248;-97.2885063216;Westbound Ness at School
1528;49.8322777081;-97.2091834955;Westbound Rothwell at Kenaston
1529;49.7933894917;-97.1445191858;Northbound Dalhousie at Rutgers
1530;49.8605578861;-97.0833672342;Southbound Drake at Cottonwood
1531;49.8882829382;-97.2939170187;Westbound Ness at Parkdale
1532;49.8598689015;-97.0852172769;Westbound Cottonwood at Boulder
1533;49.8886181471;-97.2971351787;Westbound Ness at Muriel
1534;49.8054062895;-97.0902997584;Westbound Aldgate at Dakota
